,codigo_municipio_7,municipio,0 a 4 anos,5 a 9 anos,10 a 14 anos,15 a 19 anos,20 a 24 anos,25 a 29 anos,30 a 34 anos,35 a 39 anos,40 a 44 anos,45 a 49 anos,50 a 54 anos,55 a 59 anos,60 a 64 anos,65 a 69 anos,70 a 74 anos,75 a 79 anos,80 a 84 anos,85 a 89 anos,90 a 94 anos,95 a 99 anos,100 anos ou mais,População residente (Pessoas),Área da unidade territorial (Quilômetros quadrados),Densidade demográfica (Habitante por quilômetro quadrado),Média de moradores em domicílios particulares permanentes ocupados (Pessoas),Percentual Homens,Percentual Mulheres,percentual_cor_raca_braca,percentual_cor_raca_preta,percentual_cor_raca_amarela,percentual_cor_raca_parda,percentual_cor_raca_indigena,percentual_declara_indigena,percentual_moradores_domicilios_com_banheiro,taxa_alfabetizacao,populacao_2010,populacao_urbana,gini,taxa_atividade,percentual_trabalhadores_formalizados,percentual_ocupados_agropecuaria,percentual_ocupados_comercio,percentual_ocupados_servico,percentual_ocupados_industria,percentual_trabalhadores_conta_propria,percentual_trabalhadores_formais,taxa_desocupacao,percentual_populacao_vive_domicilios_densidade_maior_2_por_dormitorio,percentual_populacao_vulneravel_pobreza_gastam_mais_uma_hora_trabalho,renda_per_capita,espectativa_vida_ao_nascer,espectativa_anos_estudo_aos_18_anos,percentual_internacoes_doencas_saneamento_inadequado,transferencia_percapita_bolsa_familia,percentual_domicilios_aglomerados_subnormais_estimado,populacao_aglomerados,densidade_demografica_aglomerados,longitude,latitude
0,1100015,Alta Floresta D'Oeste (RO),1564,1522,1541,1666,1532,1576,1661,1531,1597,1553,1363,1263,1061,794,518,353,219,128,46,5,1,21495,7067,3.04,2.79,50.45,49.55,35.31382310519704,6.034522867910482,0.2140231703345275,55.11096636114083,3.3266644954171123,3.4846934028100867,98.16,91.59,24392.0,13970.0,0.58,51.93,41.68,38.56,13.78,33.18,3.26,34.73,41.68,6.07,22.58,1.15,476.99,70.75,8.67,4.64,79.3,0.0,0.0,0.0,-61.9998238962936,-11.9355403047646
1,1100023,Ariquemes (RO),6946,7201,6957,7691,8328,8179,7760,7819,7459,6615,5801,4916,3856,2793,1950,1254,809,355,114,25,5,96833,4427,21.88,2.77,49.56,50.44,32.28648146235671,9.933904781575958,0.3273778787565837,57.35206031188681,0.10017556542393886,0.1012051676597854,99.78,94.08,90353.0,76525.0,0.53,60.62,52.81,14.97,17.99,40.06,9.1,27.66,52.81,5.11,27.15,0.16,689.95,73.36,9.18,2.23,41.87,0.3086843188366031,0.0,0.0,-63.0332692780484,-9.9084628665672
2,1100031,Cabixi (RO),331,350,415,375,249,308,373,403,426,342,402,348,326,276,169,112,83,54,9,0,0,5363,1314,4.08,2.73,50.53,49.47,39.917772378994584,6.447393010652215,0.22425714819659875,53.3732012707905,0.03737619136609979,0.186880956830499,99.94,89.82,6313.0,2693.0,0.51,54.23,39.38,45.49,6.46,36.91,3.98,32.98,39.38,2.9,19.93,0.65,457.17,70.39,10.09,7.47,36.76,0.0,0.0,0.0,-60.5443135812009,-13.4997634596963
3,1100049,Cacoal (RO),5792,5833,5843,6332,7383,7367,7091,6921,6814,5808,5403,4717,3985,2890,1967,1291,806,419,173,40,12,86895,3793,22.91,2.71,48.96,51.04,37.18060862759541,7.716035173334561,0.42010036370332854,52.75539800193362,1.9278578334330831,1.9427532312083509,98.8,93.71,78574.0,61921.0,0.57,60.39,55.07,19.69,19.0,39.07,10.43,24.97,55.07,6.28,20.5,0.43,738.06,74.27,9.74,2.05,29.62,1.9078806862675304,0.0,0.0,-61.4429442118224,-11.4338650286852
4,1100056,Cerejeiras (RO),1166,1148,1064,1142,1051,1295,1307,1238,1153,1086,969,937,746,548,442,296,173,93,32,4,0,15890,2783,5.71,2.69,49.5,50.5,39.10006293266205,6.4505978602894904,0.3713027061044682,53.99622404027691,0.08181246066708621,0.144745122718691,99.97,92.15,17029.0,14419.0,0.5,60.18,45.54,26.67,14.08,38.39,6.87,28.46,45.54,5.72,16.66,0.38,577.18,72.94,10.22,6.46,44.39,0.0,0.0,0.0,-60.8184261646815,-13.1950330320399
5,1100064,Colorado do Oeste (RO),983,1054,1048,1088,1036,1090,1068,1172,1192,1153,1034,1056,819,665,506,318,213,110,44,11,3,15663,1451,10.79,2.61,49.81,50.19,35.60620570771883,7.654983081146652,0.25537891847028027,56.40681861712316,0.07661367554108409,0.0829981485028411,99.83,90.47,18591.0,13657.0,0.49,56.13,48.57,23.67,16.56,37.19,8.3,25.97,48.57,6.78,14.73,0.25,535.41,73.81,10.4,7.86,20.44,0.0,0.0,0.0,-60.5550674630789,-13.1305638414553
6,1100072,Corumbiara (RO),521,533,477,530,494,528,581,604,578,549,537,498,397,275,182,124,67,29,13,0,2,7519,3060,2.46,2.64,52.07,47.93,29.53850246043357,8.431972336746908,0.10639712727756351,61.65713525734805,0.26599281819390874,1.1570687591435032,98.6,91.52,8783.0,2590.0,0.48,57.29,43.3,51.25,7.71,28.68,3.45,34.94,43.3,3.75,14.46,0.69,402.15,71.45,9.82,2.02,72.8,0.0,0.0,0.0,-60.9487011706614,-12.9975202364834
7,1100080,Costa Marques (RO),1033,1066,1088,1180,999,934,912,962,916,872,669,666,456,340,244,144,82,34,22,6,2,12627,4987,2.53,3.01,51.79,48.21,25.510850625693017,10.074449548550609,0.10296214161254554,61.06447014097893,3.247267543164898,9.63807713629524,95.24,92.92,13678.0,7497.0,0.52,58.16,35.98,34.89,8.82,39.96,5.6,37.11,35.98,4.71,36.18,1.33,370.77,70.04,9.22,3.58,147.47,0.0,0.0,0.0,-64.2316539391172,-12.4360138777142
8,1100098,Espigão D'Oeste (RO),2132,2116,2089,2254,2266,2169,2319,2406,2331,2034,1828,1574,1294,975,704,426,284,141,52,18,2,29397,4518,6.51,2.8,50.18,49.82,40.51812062283267,6.782484531175631,0.13938940640511321,50.37397157816006,2.1860338614265316,2.4546134493778475,98.21,92.01,28729.0,20610.0,0.52,63.22,41.78,29.68,16.86,31.45,10.44,28.04,41.78,4.9,19.97,0.53,590.8,74.15,9.55,8.04,50.89,0.0,0.0,0.0,-61.0201731132847,-11.5285546333473
9,1100106,Guajará-Mirim (RO),3481,3417,3679,3548,3144,2872,2772,2810,2823,2486,2170,1939,1439,1013,775,494,290,144,61,24,6,39386,24857,1.58,3.3,50.09,49.91,17.157945515017644,8.609439662832914,0.2818188742478483,60.37778962601874,13.573006321882856,13.895447736562824,81.77,94.16,41656.0,35207.0,0.54,51.25,49.28,11.33,18.26,51.64,4.16,26.16,49.28,7.22,43.4,0.27,494.69,74.39,8.17,6.88,88.45,7.379713914174252,0.0,0.0,-65.3239518196923,-10.7738837406705
10,1100114,Jaru (RO),3602,3479,3506,3762,4069,4107,3941,4064,4127,3468,3106,2582,2093,1680,1264,797,535,267,112,25,5,50591,2944,17.18,2.66,49.33,50.67,30.965229595366583,9.557413667002708,0.1443001443001443,59.20061673486331,0.13243985846725573,0.13243462275898876,99.83,92.39,52005.0,35118.0,0.49,57.33,48.91,23.48,17.83,34.78,10.57,32.33,48.91,5.61,19.09,0.25,575.14,74.51,9.42,1.61,47.53,0.0,0.0,0.0,-62.4762307081317,-10.4359487678844
11,1100122,Ji-Paraná (RO),8823,9016,8793,9489,9691,10244,10203,10202,9777,8222,7531,6624,5315,4037,2676,1741,1096,544,239,57,13,124333,6897,18.03,2.75,49.19,50.81,32.62287566454602,8.789299703216361,0.27024201137268467,57.06208327636267,1.255499344502264,1.2651508449084314,99.08,94.37,116610.0,104858.0,0.53,61.83,59.07,12.17,22.98,43.14,8.84,22.12,59.07,6.22,23.3,0.41,743.35,73.6,9.95,2.0,29.75,0.0,0.0,0.0,-61.9450945826841,-10.882051318349
12,1100130,Machadinho D'Oeste (RO),2330,2418,2482,2510,2126,2253,2386,2445,2506,2122,1781,1570,1337,1027,694,376,207,92,37,8,0,30707,8509,3.61,2.81,52.15,47.85,26.61933761031687,9.646009053310319,0.12049369850522683,63.48715276647019,0.12700687139740124,0.13352004428957567,96.66,91.65,31135.0,16173.0,0.55,59.52,31.93,48.35,9.99,27.65,6.67,35.99,31.93,3.85,28.87,0.61,401.42,70.32,7.8,4.51,61.47,0.0,0.0,0.0,-61.9995925724466,-9.42556248
13,1100148,Nova Brasilândia D'Oeste (RO),1069,985,1021,1209,1101,1148,1159,1245,1239,1207,1038,863,789,597,456,258,160,96,30,9,0,15679,1703,9.21,2.7,51.1,48.9,35.02774411633395,8.087250462401938,0.3316538044518145,56.47043816569934,0.08291345111295363,0.08291345111295363,99.54,91.36,19874.0,8380.0,0.56,60.93,29.12,52.88,11.5,21.6,3.65,46.87,29.12,3.95,20.31,0.65,499.59,70.75,9.44,15.04,83.94,0.0,0.0,0.0,-62.308230163019,-11.7213254138559
14,1100155,Ouro Preto do Oeste (RO),2296,2330,2366,2471,2470,2562,2666,2817,2805,2316,2329,2163,1771,1294,980,642,459,209,77,18,3,35044,1970,17.79,2.61,49.17,50.83,33.021344595365825,8.512156146558612,0.35098733021344597,57.98995548453373,0.12555644332838717,0.12555644332838717,99.77,92.81,37928.0,28180.0,0.48,60.33,44.51,25.09,14.85,40.22,4.97,27.89,44.51,8.07,17.02,0.16,576.51,73.72,9.17,4.1,28.76,0.0,0.0,0.0,-62.2610551904363,-10.7235739008135
15,1100189,Pimenta Bueno (RO),2492,2469,2531,2671,2854,2789,2745,2780,2737,2381,2153,1920,1587,1209,737,521,275,149,65,11,3,34998,6241,5.61,2.81,50.1,49.9,33.85597810593534,7.377843662694566,0.3820058156109242,56.84759678430925,1.5365756314499115,1.556486786966561,99.43,93.24,33822.0,29417.0,0.54,64.78,66.68,11.26,19.58,40.33,14.82,21.02,66.68,6.35,21.55,0.19,734.76,73.15,9.08,7.97,33.39,0.0,0.0,0.0,-61.183665673642,-11.67753699
16,1100205,Porto Velho (RO),32424,36013,35383,35762,38595,39010,38580,39669,36601,30126,26358,23041,18208,12845,8098,4710,2871,1362,567,174,37,460413,34091,13.51,3.01,49.18,50.82,26.267481283434073,9.440707526372602,0.27952678092441485,63.44150245101765,0.5707819582512527,0.8930704509223906,98.77,95.64,428527.0,390733.0,0.56,60.49,65.48,6.27,15.38,49.35,4.99,21.6,65.48,6.23,36.73,0.76,929.19,74.14,8.99,0.93,53.64,13.561018953638987,47687.0,18.68095613,-63.8314456543611,-8.76889179
17,1100254,Presidente Médici (RO),1207,1280,1312,1352,1204,1298,1273,1417,1488,1396,1329,1275,1144,885,617,382,266,121,60,18,3,19327,1758,10.99,2.67,49.95,50.05,34.97697521601904,6.1054483365240335,0.238009002949242,58.64334868318932,0.036218761318362915,0.036218761318362915,99.49,92.38,22319.0,13303.0,0.53,61.26,40.5,40.86,15.23,32.21,4.27,36.45,40.5,5.42,17.7,0.64,520.2,72.51,9.78,1.52,122.73,0.0,0.0,0.0,-61.9094386835298,-11.1732050162268
18,1100262,Rio Crespo (RO),238,255,257,264,238,239,232,280,265,255,225,237,172,122,92,52,30,11,7,0,0,3471,1718,2.02,2.76,53.24,46.76,31.20138288677615,9.075194468452894,0.40334197637568425,59.06078939786805,0.25929127052722556,0.31691155286660905,97.97,92.17,3316.0,1064.0,0.58,50.35,42.88,47.74,5.59,31.07,3.97,22.76,42.88,7.88,27.09,0.48,420.61,73.77,9.03,7.07,78.24,0.0,0.0,0.0,-62.9000103659589,-9.70553670973949
19,1100288,Rolim de Moura (RO),3944,3982,3839,4054,4577,4695,4710,4471,4332,3755,3580,3029,2488,1887,1320,846,521,255,90,23,8,56406,1458,38.69,2.67,49.36,50.64,35.46505443069395,7.469593276834155,0.24821814829261374,56.64515442714797,0.17197971703131093,0.1737403822288409,99.89,93.5,50648.0,41429.0,0.53,59.5,55.27,14.96,20.25,38.36,12.29,22.23,55.27,7.08,20.06,0.3,657.65,73.46,9.9,4.24,25.85,0.0,0.0,0.0,-61.7857809351854,-11.7222589133808
20,1100296,Santa Luzia D'Oeste (RO),468,471,524,506,419,466,516,510,595,534,591,520,397,322,237,163,106,49,21,3,1,7419,1198,6.19,2.68,50.3,49.7,33.265938805768975,8.842162016444265,0.47176169295053244,57.393179673810494,0.026957811025744707,0.026957811025744707,99.74,90.45,8886.0,4525.0,0.49,59.81,41.2,48.66,7.54,28.23,6.13,31.0,41.2,8.1,15.24,0.37,476.08,73.73,9.71,14.7,61.87,0.0,0.0,0.0,-61.7733054630545,-11.908423332469
21,1100304,Vilhena (RO),7158,6948,6784,7290,7837,7914,8273,8068,7636,6418,5810,4875,3818,2757,1857,1186,700,352,120,23,8,95832,11699,8.19,2.73,49.22,50.78,39.3951726512851,7.248327750472196,0.26714251427021046,52.47472059606173,0.6146364879107578,1.2782786543117122,99.73,95.25,76202.0,72218.0,0.5,64.97,61.81,9.19,19.38,48.03,8.54,21.0,61.81,7.7,21.21,0.29,768.98,73.49,10.55,1.88,42.27,0.10651517841292384,0.0,0.0,-60.1385838660987,-12.7413734718029
22,1100320,São Miguel do Guaporé (RO),1696,1565,1525,1649,1686,1739,1700,1681,1693,1519,1302,1207,916,688,460,306,177,93,26,3,4,21635,7460,2.9,2.73,50.86,49.14,34.136082093001754,9.20772857539059,0.3420541739853934,55.685495054081535,0.628640103540723,1.0954471920499191,98.93,92.68,21828.0,8470.0,0.62,57.33,36.51,41.43,9.68,25.86,8.35,30.17,36.51,3.93,24.35,0.35,440.6,71.87,9.72,3.05,49.97,0.0,0.0,0.0,-62.7200634814364,-11.699489743806
23,1100338,Nova Mamoré (RO),2189,2184,2202,2243,2037,1913,1888,1922,1996,1665,1382,1259,898,722,438,261,152,57,26,9,1,25444,10070,2.53,3.0,51.24,48.76,24.835907715285146,7.727076209566482,0.204378414495146,63.152930079000114,4.079707581653107,4.193523030969973,93.54,90.69,22546.0,13067.0,0.52,58.6,32.82,44.86,7.36,27.28,6.48,42.96,32.82,3.84,31.45,0.47,377.34,71.15,7.7,5.36,74.27,0.0,0.0,0.0,-65.3291490231467,-10.4117712947002
24,1100346,Alvorada D'Oeste (RO),868,862,882,945,869,901,882,940,1056,898,947,860,716,566,378,262,177,70,33,5,0,13117,3029,4.33,2.72,50.42,49.58,33.8263322406038,9.445757414042845,0.12197911107722803,56.537317984295186,0.06861324998094076,0.06861324998094076,99.15,88.53,16853.0,8824.0,0.53,54.08,43.26,36.0,8.65,35.53,2.34,28.78,43.26,5.58,17.85,1.07,469.26,70.75,9.78,3.37,101.52,0.0,0.0,0.0,-62.2772748656972,-11.3441300234334
25,1100379,Alto Alegre dos Parecis (RO),873,862,872,891,745,860,846,864,858,799,779,681,505,407,281,183,105,51,9,6,2,11479,3958,2.9,2.84,51.22,48.78,30.8650579318756,7.89267357783779,0.052269361442634374,60.292708424078754,0.8972907047652235,0.9495600662078577,98.52,90.79,12816.0,3657.0,0.54,58.97,24.57,52.42,8.98,21.46,2.82,38.77,24.57,5.39,24.2,0.71,341.22,71.64,9.46,20.15,71.81,0.0,0.0,0.0,-61.853077168603,-12.1317772245709
26,1100403,Alto Paraíso (RO),1228,1189,1263,1296,1291,1173,1159,1214,1238,1143,1044,922,717,536,388,253,169,67,21,6,3,16320,2652,6.15,2.83,51.12,48.88,30.08762791837735,7.89876830688155,0.03676695875972793,61.91555855138182,0.06127826459954654,0.061274509803921566,99.52,91.73,17135.0,8202.0,0.54,64.4,27.95,50.67,9.67,22.35,6.41,49.73,27.95,2.66,21.88,0.26,498.49,73.22,7.61,5.39,64.74,0.0,0.0,0.0,-63.3176294334976,-9.71666673807728
27,1100452,Buritis (RO),2135,2150,2178,2362,2195,2138,2109,2290,2222,1898,1615,1395,1150,894,576,355,210,80,30,9,1,27992,3266,8.57,2.81,50.79,49.21,30.330094312660762,7.748642469276937,0.45012860817376393,61.303229494141185,0.1679051157473564,0.1679051157473564,99.45,92.46,32383.0,18122.0,0.5,64.91,31.56,37.15,14.19,29.1,9.71,32.76,31.56,5.54,24.71,0.36,458.05,70.08,8.3,1.64,68.24,0.0,0.0,0.0,-63.8296787917565,-10.2098054072356
28,1100502,Novo Horizonte do Oeste (RO),495,480,532,540,454,531,510,577,574,583,565,507,418,358,218,154,106,47,17,1,0,7667,843,9.09,2.74,51.17,48.83,34.99413068997,6.599713055954089,0.11738620059997393,58.26268423112039,0.026085822355549758,0.026085822355549758,99.61,90.03,10240.0,1733.0,0.51,55.7,30.94,59.47,6.36,23.23,1.97,31.24,30.94,5.18,22.51,0.74,346.38,72.92,8.8,8.97,78.22,0.0,0.0,0.0,-61.9943876627606,-11.7097429200152
29,1100601,Cacaulândia (RO),311,294,324,296,262,293,316,331,296,280,242,275,198,152,123,76,51,20,7,3,0,4150,1962,2.12,2.8,51.52,48.48,30.0,12.0,0.1686746987951807,57.73493975903614,0.09638554216867469,0.09638554216867469,99.45,88.08,5736.0,2069.0,0.56,63.7,31.55,57.66,6.45,24.64,1.51,37.56,31.55,4.13,26.48,0.17,499.93,73.08,9.44,1.41,45.37,0.0,0.0,0.0,-62.9031899345687,-10.3388728393928
30,1100700,Campo Novo de Rondônia (RO),661,666,737,730,622,580,602,648,694,662,619,529,402,273,209,115,63,25,7,0,0,8844,3442,2.57,2.88,52.73,47.27,27.589326096788785,8.186341022161917,0.15829941203075532,64.03211216644053,0.033921302578018994,0.033921302578018994,98.23,90.46,12665.0,3371.0,0.67,56.37,21.88,39.35,5.34,19.26,1.16,41.92,21.88,3.06,26.32,1.06,507.69,71.34,7.86,7.66,74.53,0.0,0.0,0.0,-63.6249914265426,-10.5684164693485
31,1100809,Candeias do Jamari (RO),1830,1888,1874,1865,1809,1767,1597,1725,1665,1371,1236,1104,937,684,452,271,143,67,21,1,3,22238,6844,3.25,3.0,51.4,48.6,22.749686211224674,8.978841671149365,0.4437869822485207,67.20907297830375,0.6186121570736955,0.6230389959659345,98.58,91.87,19779.0,12887.0,0.47,55.84,50.24,20.81,12.19,36.62,9.88,21.47,50.24,5.03,40.29,1.43,463.63,74.11,8.19,1.09,116.26,0.0,0.0,0.0,-63.7000200718298,-8.78502070347748
32,1100908,Castanheiras (RO),198,229,226,205,172,232,219,212,260,257,225,235,165,133,106,73,53,24,7,2,0,3233,893,3.62,2.7,51.28,48.72,34.11691927002784,7.1759975255180946,0.06186204763377668,58.39777296628519,0.24744819053510672,0.24744819053510672,99.47,89.81,3575.0,836.0,0.5,58.37,35.23,51.98,6.29,32.0,2.07,29.87,35.23,3.14,20.52,0.88,455.53,73.15,9.96,4.03,83.28,0.0,0.0,0.0,-61.9491611964662,-11.4268422254625
33,1100924,Chupinguaia (RO),764,788,820,753,716,776,742,785,729,618,519,427,345,227,145,74,59,24,8,3,2,9324,5127,1.82,2.9,50.76,49.24,29.365079365079367,10.767910767910768,0.02145002145002145,56.48863148863149,3.356928356928357,3.421278421278421,96.9,92.64,8301.0,3663.0,0.47,66.07,52.61,39.17,7.85,27.12,15.27,21.22,52.61,3.6,29.61,0.73,483.36,74.21,9.53,0.82,80.92,0.0,0.0,0.0,-60.9018477499554,-12.5568407610938
34,1100940,Cujubim (RO),1270,1237,1226,1212,1149,1159,1129,1212,1262,989,892,692,515,404,242,139,81,41,9,3,0,14863,3864,3.85,2.85,51.78,48.22,26.656798762026508,10.697705712171162,0.43059947520688957,61.96595572899145,0.24894032160398305,0.24894032160398305,97.07,92.34,15854.0,11043.0,0.52,60.28,37.92,42.83,10.98,24.4,16.57,34.75,37.92,6.33,33.65,0.83,495.31,72.33,8.01,4.63,71.1,0.0,0.0,0.0,-62.5871745319209,-9.37819339905712
35,1101005,Governador Jorge Teixeira (RO),543,593,575,594,554,534,564,582,612,586,567,476,380,300,227,158,90,38,21,7,0,8001,5067,1.58,2.76,50.97,49.03,27.14660667416573,9.786276715410573,0.137482814648169,61.967254093238346,0.9623797025371827,1.149856267966504,98.1,89.21,10512.0,2361.0,0.55,52.94,30.84,68.24,4.99,18.99,2.46,43.53,30.84,2.04,23.3,0.54,396.36,70.71,9.0,1.65,128.49,0.0,0.0,0.0,-62.7404576394632,-10.6120717726075
36,1101104,Itapuã do Oeste (RO),716,741,753,694,657,612,616,652,621,522,480,437,373,288,169,116,62,29,10,0,0,8541,4082,2.09,2.93,52.13,47.87,22.847449695835284,8.540009358914366,0.10528778661675246,68.33177351427234,0.1754796443612541,0.1754796443612541,98.68,90.31,8566.0,5222.0,0.47,61.83,41.94,41.95,8.37,30.92,4.8,29.42,41.94,5.5,34.37,0.29,411.36,70.08,9.16,2.03,75.34,0.0,0.0,0.0,-63.1823370165183,-9.19187167532785
37,1101203,Ministro Andreazza (RO),365,380,473,504,455,405,392,464,480,541,481,418,319,273,216,132,112,35,16,3,2,6466,798,8.1,2.71,50.77,49.23,37.349211258892666,7.160532013609651,0.046396535725332505,55.397463656047016,0.046396535725332505,0.046396535725332505,99.49,88.99,10352.0,3074.0,0.54,54.44,32.54,60.11,6.03,21.67,3.76,39.45,32.54,2.29,19.99,0.0,448.38,71.55,8.95,6.18,48.91,0.0,0.0,0.0,-61.5189219301054,-11.1962379841591
38,1101302,Mirante da Serra (RO),604,613,608,704,652,651,597,704,711,726,584,579,463,423,265,152,123,50,20,5,1,9235,1192,7.75,2.63,50.56,49.44,32.23954949101147,8.208793588910549,0.22742040285899934,57.79727095516569,1.5269655620532814,1.645912290200325,97.68,89.07,11878.0,6444.0,0.6,60.14,34.35,44.65,11.84,29.91,6.77,31.44,34.35,7.15,20.58,0.5,527.79,72.99,9.76,10.83,62.04,0.0,0.0,0.0,-62.6694270952566,-11.045609289937
39,1101401,Monte Negro (RO),800,807,829,929,824,805,745,884,908,843,735,695,553,442,322,210,130,53,26,7,1,11548,1931,5.98,2.73,51.91,48.09,30.983720124696916,9.334949774852788,0.20782819535850364,59.26567370973329,0.20782819535850364,0.20782819535850364,98.8,89.15,14091.0,7390.0,0.47,60.17,41.04,46.95,7.95,27.72,3.41,38.77,41.04,2.9,28.17,0.32,443.85,70.71,9.65,3.28,54.53,0.0,0.0,0.0,-63.2955591672175,-10.263097755883
40,1101435,Nova União (RO),390,399,468,485,413,414,418,484,482,487,426,382,314,235,150,132,64,38,13,5,1,6200,807,7.68,2.77,50.92,49.08,29.629032258064512,10.03225806451613,0.12903225806451613,60.064516129032256,0.14516129032258066,0.14516129032258066,96.73,89.7,7493.0,1541.0,0.47,65.5,27.77,62.93,4.97,18.03,1.79,36.56,27.77,4.27,20.48,0.9,352.24,70.17,8.7,6.56,57.74,0.0,0.0,0.0,-62.55508939888,-10.9155320416628
41,1101450,Parecis (RO),305,294,308,320,297,274,317,316,314,305,283,268,181,123,90,69,31,26,2,1,1,4125,2549,1.62,2.75,52.44,47.56,29.89090909090909,9.357575757575757,0.1696969696969697,58.763636363636365,1.8181818181818181,1.890909090909091,94.41,89.53,4810.0,1774.0,0.52,52.98,37.82,48.04,7.98,25.26,6.97,20.28,37.82,2.72,20.36,0.44,343.73,73.0,8.96,9.57,64.5,0.0,0.0,0.0,-61.5979979726776,-12.1798270507077
42,1101468,Pimenteiras do Oeste (RO),183,172,180,166,129,152,154,168,159,163,133,122,100,72,47,30,17,6,3,0,0,2156,6015,0.36,2.85,50.65,49.35,27.92207792207792,18.59925788497217,0.5102040816326531,52.319109461966605,0.6493506493506493,7.884972170686456,99.76,93.15,2315.0,1292.0,0.49,58.28,43.93,43.07,6.44,42.6,1.25,28.29,43.93,6.41,26.07,0.35,493.67,73.98,9.52,4.43,93.83,0.0,0.0,0.0,-61.0443790025384,-13.4765620024615
43,1101476,Primavera de Rondônia (RO),203,233,223,189,171,178,205,251,242,223,208,205,180,138,101,61,31,27,4,3,0,3074,606,5.08,2.72,51.37,48.63,38.97919375812744,6.8920676202860855,0.1950585175552666,53.901170351105335,0.032509752925877766,0.032509752925877766,99.8,87.46,3524.0,1284.0,0.52,49.59,45.76,51.98,6.16,28.81,4.76,39.76,45.76,6.37,22.7,0.0,442.61,72.94,9.65,1.95,62.91,0.0,0.0,0.0,-61.3165462429165,-11.8257069542468
44,1101484,São Felipe D'Oeste (RO),298,314,358,360,262,313,375,370,444,382,380,400,318,249,177,122,87,34,11,3,1,5258,542,9.71,2.68,51.24,48.76,38.68391023202739,5.553442373526055,0.399391403575504,55.32521871434005,0.038037276531000384,0.038037276531000384,99.7,89.81,6018.0,1444.0,0.47,55.03,38.19,52.93,7.96,28.13,3.63,39.13,38.19,5.01,17.46,0.79,368.24,71.78,10.57,1.49,22.27,0.0,0.0,0.0,-61.5125081133327,-11.9143893546886
45,1101492,São Francisco do Guaporé (RO),1302,1314,1343,1316,1217,1321,1344,1265,1221,1102,906,807,656,463,317,195,122,51,19,5,0,16286,10949,1.49,2.8,50.8,49.2,33.82659953334152,8.049858774407467,0.1412255925334643,55.225346923738186,2.7569691759793686,4.120103156084981,98.26,91.86,16035.0,8227.0,0.56,63.86,30.53,50.89,10.94,25.92,5.47,37.67,30.53,5.88,21.74,0.4,477.9,70.04,9.44,4.74,67.66,0.0,0.0,0.0,-63.5708647107649,-12.0637984122334
46,1101500,Seringueiras (RO),803,852,809,910,841,890,862,828,804,740,736,661,530,363,214,151,105,49,14,6,3,11171,3774,2.96,2.82,51.26,48.74,34.267299257004744,7.170351803777638,0.23274550174559125,57.82830543371229,0.501298003759735,0.7071882553039119,97.64,92.73,11629.0,4397.0,0.63,65.25,28.32,55.76,8.51,20.45,5.38,41.2,28.32,4.39,24.4,0.09,441.13,71.75,8.97,4.17,83.89,0.0,0.0,0.0,-63.0387609977072,-11.767116635607
47,1101559,Teixeirópolis (RO),261,288,261,312,293,264,251,308,353,291,307,304,224,175,161,94,48,42,10,6,3,4256,460,9.25,2.69,50.68,49.32,32.119360902255636,9.210526315789473,0.18796992481203006,58.411654135338345,0.07048872180451127,0.07048872180451127,99.74,89.96,4888.0,1716.0,0.43,61.34,33.89,58.65,6.82,23.36,5.22,37.11,33.89,3.36,16.29,0.43,464.45,74.09,9.2,3.89,82.15,0.0,0.0,0.0,-62.2559222539546,-10.9321692860399
48,1101609,Theobroma (RO),521,533,604,589,452,465,491,597,695,610,584,556,509,351,244,159,91,44,14,3,1,8113,2197,3.69,2.7,51.63,48.37,30.0875138666338,8.307654381856281,0.18488845063478368,61.32133612720325,0.09860717367188464,0.09860717367188464,99,88.38,10649.0,1978.0,0.57,61.8,24.0,67.07,4.76,18.77,2.53,37.28,24.0,5.6,21.4,0.67,382.6,70.4,8.14,2.69,62.26,0.0,0.0,0.0,-62.3451455299349,-10.2487305520261
49,1101708,Urupá (RO),741,713,706,811,738,747,773,822,801,780,667,625,547,468,364,190,134,68,26,3,1,10725,832,12.89,2.71,50.71,49.29,28.792540792540795,6.573426573426573,0.3076923076923077,64.22377622377621,0.10256410256410256,0.10256410256410256,99.81,90.24,12974.0,5137.0,0.51,59.21,26.21,53.22,9.61,22.82,3.41,29.87,26.21,4.86,19.71,0.43,380.5,71.32,8.92,2.58,81.89,0.0,0.0,0.0,-62.3706324537667,-11.1285452756794
50,1101757,Vale do Anari (RO),516,597,598,570,474,512,521,585,611,585,534,487,394,309,239,135,76,28,15,2,0,7788,3135,2.48,2.76,52.13,47.87,27.54237288135593,9.28351309707242,0.08988186954288649,62.94298921417566,0.14124293785310735,0.14124293785310735,98.68,88.35,9384.0,3192.0,0.57,59.59,27.88,61.18,7.26,21.47,3.64,40.34,27.88,4.43,22.22,0.19,394.02,70.36,8.4,3.16,82.62,0.0,0.0,0.0,-62.1768234421278,-9.85139270806179
51,1101807,Vale do Paraíso (RO),381,413,410,472,416,414,382,474,570,465,517,417,354,285,224,132,73,55,15,8,2,6479,966,6.71,2.65,51.03,48.97,28.816175335699956,8.056798888717395,0.03086896125945362,63.049853372434015,0.04630344188918043,0.10804136440808766,99.64,89.5,8210.0,2276.0,0.59,45.2,27.68,56.3,9.18,26.24,2.66,39.05,27.68,3.44,14.29,0.3,432.03,72.5,9.28,5.64,74.14,0.0,0.0,0.0,-62.1343903568099,-10.4310526845565
52,1200013,Acrelândia (AC),1320,1269,1252,1285,1174,1052,1009,1004,1053,788,688,613,521,382,277,159,103,51,16,4,1,14021,1812,7.74,3.13,51.02,48.98,24.798516510947863,11.910705370515656,0.399400898652022,62.67741245274945,0.21396476713501175,0.21396476713501175,94.56,88.35,12538.0,5916.0,0.54,51.89,31.34,47.69,8.27,29.55,7.36,26.74,31.34,9.88,41.61,1.2,303.76,73.45,7.35,4.74,182.54,0.0,0.0,0.0,-67.0523165800206,-10.0737938924635
53,1200054,Assis Brasil (AC),883,823,883,800,644,635,620,556,508,442,350,263,236,176,115,81,50,20,12,2,1,8100,4979,1.63,3.33,51.06,48.94,16.125447586121744,4.333868378812198,0.16051364365971107,64.62526237807137,14.75490801333498,14.901234567901234,76.63,85.3,6072.0,3700.0,0.61,46.78,30.78,22.48,12.24,51.8,2.48,16.77,30.78,7.45,47.0,1.01,291.33,71.19,7.08,2.24,380.23,0.0,0.0,0.0,-69.5634591746677,-10.9428656809172
54,1200104,Brasiléia (AC),2293,2320,2253,2261,2376,2122,2049,1891,1891,1521,1371,1095,817,642,469,278,188,96,47,14,6,26000,3928,6.62,2.99,50.43,49.57,19.496153846153845,6.392307692307693,0.1346153846153846,72.91153846153846,1.0653846153846154,1.0846153846153845,86.87,89.01,21398.0,14257.0,0.58,50.36,29.99,31.38,11.51,37.71,2.42,30.22,29.99,6.35,41.11,1.28,376.07,71.22,7.42,1.93,230.28,10.145122278957269,0.0,0.0,-68.7479434259584,-11.0164110190858
55,1200138,Bujari (AC),1100,1191,1251,1195,1041,937,822,879,963,825,698,569,521,376,256,151,91,33,12,4,2,12917,3035,4.26,3.08,51.99,48.01,20.39173182627545,14.7325230316637,0.38708678485716497,64.25640628628939,0.23225207091429897,0.23225207091429897,84.28,81.26,8471.0,3693.0,0.58,50.5,31.25,46.46,8.01,34.0,1.72,21.18,31.25,3.63,50.25,1.01,340.95,71.32,8.59,0.0,229.57,0.0,0.0,0.0,-67.9518592792015,-9.82001962670938
56,1200179,Capixaba (AC),870,927,980,982,840,737,633,720,705,665,598,551,436,297,218,115,77,20,17,4,0,10392,1706,6.09,2.99,52.33,47.67,13.789453425712086,9.738260200153965,0.3656658968437259,76.03926096997691,0.06735950731331794,0.06735950731331794,87.22,84.27,8798.0,3929.0,0.56,59.19,28.02,43.74,8.42,31.06,6.61,28.0,28.02,4.14,48.48,0.25,336.17,72.62,7.47,0.72,155.6,0.0,0.0,0.0,-67.6735079719432,-10.5697677087928
57,1200203,Cruzeiro do Sul (AC),7967,8110,8727,9326,9566,7895,6864,6910,6740,5057,3839,3046,2432,1812,1426,970,664,319,135,64,19,91888,8783,10.46,3.41,49.9,50.1,22.889481416988627,7.791260815149371,0.1327746639821516,67.4103498938891,1.7761332099907494,1.8261361657670208,78.13,86.24,78507.0,55326.0,0.64,50.39,42.46,19.65,15.28,47.12,3.79,21.94,42.46,8.12,45.0,0.67,450.06,71.58,9.13,2.28,290.71,12.830101569713758,3123.0,41.04323142,-72.6725313174358,-7.63069000500981
58,1200252,Epitaciolândia (AC),1628,1726,1579,1570,1675,1649,1457,1443,1265,1097,983,801,657,469,313,204,146,50,33,9,3,18757,1653,11.35,2.89,50.26,49.74,18.31316308578131,7.8050861011888895,0.0746388015141014,73.66849709441809,0.1386149170976169,0.1386149170976169,85.06,88.78,15100.0,10618.0,0.6,54.93,31.95,25.84,15.29,38.83,4.34,33.88,31.95,7.12,38.98,1.06,467.83,71.27,8.85,2.68,138.05,8.973305954825463,0.0,0.0,-68.7448680666749,-11.0282398279564
59,1200302,Feijó (AC),3843,3841,3868,3928,3489,2780,2319,2313,2149,1696,1400,1058,899,635,458,345,228,111,53,9,4,35426,27977,1.27,3.77,51.4,48.6,21.964714184897673,6.537755822159492,0.06774876499647142,59.599153140437544,11.83062808750882,12.521876587816857,58.41,77.35,32412.0,16636.0,0.68,46.93,25.47,43.7,6.98,29.56,3.68,20.05,25.47,5.84,62.56,1.24,259.43,68.35,7.03,0.49,407.85,0.0,0.0,0.0,-70.3539836082165,-8.16024753
60,1200328,Jordão (AC),1283,1309,1256,1129,907,687,587,497,436,328,244,161,146,82,58,46,25,13,16,8,4,9222,5357,1.72,4.59,51.71,48.29,11.038820212535242,5.888093689004554,0.10843634786380395,41.84558664064194,41.11906310995445,44.62155714595533,39.52,81.88,6577.0,2272.0,0.71,41.76,35.64,40.92,4.07,39.17,4.48,15.22,35.64,7.68,68.55,1.29,178.03,68.83,5.73,0.71,404.07,0.0,0.0,0.0,-71.9508751248365,-9.19335785982848
61,1200336,Mâncio Lima (AC),1812,1866,2078,1952,1855,1549,1349,1484,1295,1012,774,624,519,413,253,216,136,68,23,9,7,19300,5452,3.54,3.39,51.18,48.82,15.248263708925055,6.556442417331813,0.20213537887426142,67.33181299885975,10.661345496009123,14.62630869700425,67.77,84.27,15206.0,8750.0,0.61,44.99,27.31,36.83,5.86,41.6,5.06,27.3,27.31,5.33,50.03,1.54,295.5,71.17,9.49,3.92,418.86,0.0,0.0,0.0,-72.9165010261308,-7.59322259385836
62,1200344,Manoel Urbano (AC),1231,1276,1264,1272,1138,944,862,895,777,662,441,374,288,239,126,103,43,41,9,11,0,11996,10631,1.13,3.7,52.68,47.32,15.323051271363067,12.530220925385576,0.11671529804085036,64.06836181742392,7.9616506877865785,8.019339779926641,58.39,77.84,7981.0,5278.0,0.59,50.78,34.06,31.77,6.82,41.3,3.14,18.29,34.06,2.68,55.35,1.97,307.7,71.04,5.88,8.21,455.7,0.0,0.0,0.0,-69.2599445775075,-8.83631773689166
63,1200351,Marechal Thaumaturgo (AC),1977,1985,2130,2184,1750,1360,1184,1101,964,653,510,357,321,232,140,108,73,46,12,4,2,17093,8191,2.09,3.96,52.44,47.56,16.240566313695666,7.21347920201252,0.28081670859416136,58.848651494763935,17.416486280933714,19.62791786111274,39.03,77.17,14227.0,3969.0,0.59,54.55,15.97,54.11,3.1,30.71,3.71,23.46,15.97,5.18,63.63,2.37,157.27,68.55,7.52,1.71,361.98,0.0,0.0,0.0,-72.7902659086983,-8.95359112315366
64,1200385,Plácido de Castro (AC),1424,1499,1445,1518,1374,1198,1055,1197,1138,1058,859,775,660,484,389,241,133,75,31,5,2,16560,1953,8.48,2.98,51.38,48.62,21.135265700483092,9.679951690821257,0.16908212560386474,68.70169082125604,0.3140096618357488,0.3140096618357488,90.4,84.38,17209.0,10382.0,0.55,44.49,40.99,29.35,11.44,46.52,3.13,18.42,40.99,8.28,43.73,1.29,321.16,72.17,8.72,5.29,134.66,0.0,0.0,0.0,-67.1882600861516,-10.3351332827427
65,1200393,Porto Walter (AC),1290,1191,1366,1336,1171,800,672,658,605,483,345,225,209,148,91,66,45,24,5,4,1,10735,6446,1.67,4.11,52.46,47.54,21.602235677689798,5.151374010246856,0.04657661853749418,65.92454587796925,7.275267815556591,8.085700978108989,51.15,81.1,9176.0,3323.0,0.61,56.57,16.7,60.11,3.83,27.69,2.44,27.16,16.7,2.64,68.08,3.12,204.19,68.58,7.79,3.77,293.81,0.0,0.0,0.0,-72.7423339648033,-8.26666636282753
66,1200401,Rio Branco (AC),26436,29363,28831,30991,33091,31395,29746,30217,28924,23032,19471,15849,12575,9648,6546,4083,2469,1263,573,192,61,364756,8835,41.28,2.92,48.43,51.57,24.349835779730995,9.463364349671286,0.29855738388064285,65.40517718791295,0.4830652988041255,0.5008827819144853,95.97,93.04,336038.0,308545.0,0.59,56.6,59.16,5.13,17.15,55.38,4.47,19.66,59.16,9.94,39.42,0.75,744.67,72.85,9.72,0.22,95.53,13.690980929871724,33721.0,35.99965966,-67.8105287004235,-9.97829875272498
67,1200427,Rodrigues Alves (AC),1473,1444,1659,1710,1501,1161,993,1051,981,789,583,463,360,258,216,147,81,38,21,6,3,14938,3076,4.86,3.55,52.13,47.87,17.853795688847235,7.705181416521622,0.38157718570089705,73.54398179140446,0.5154639175257731,0.5690186102557236,70.47,79.96,14389.0,4315.0,0.63,46.57,18.11,46.82,3.04,30.56,11.77,36.29,18.11,6.99,57.15,2.16,200.58,69.18,8.51,3.5,265.84,0.0,0.0,0.0,-72.6478549141997,-7.73360203372322
68,1200435,Santa Rosa do Purus (AC),1048,948,909,715,600,475,447,388,327,219,207,129,88,63,51,40,29,19,14,6,1,6723,6156,1.09,5.0,50.91,49.09,7.6900193366056815,1.3089394615499033,0.014874312063067083,27.725717685557044,63.2604492042243,63.91491893499926,48.1,77.4,4691.0,1892.0,0.78,40.67,34.21,32.74,5.61,56.79,1.67,9.8,34.21,4.77,79.03,1.41,201.58,71.86,4.72,22.47,399.1,0.0,0.0,0.0,-70.4864968937616,-9.44340653741185
69,1200450,Senador Guiomard (AC),1715,1827,1843,1875,1794,1665,1538,1629,1596,1287,1213,982,801,604,442,295,198,84,52,11,3,21453,2320,9.25,3.02,51.46,48.54,18.924209937540784,9.065908455299711,0.2050899599142351,71.646313041857,0.15847860538827258,0.15847860538827258,92.77,87.04,20179.0,12703.0,0.55,52.17,44.86,26.83,12.78,42.42,5.49,20.81,44.86,7.51,44.42,0.75,455.06,72.17,8.79,3.86,316.82,0.0,0.0,0.0,-67.7431723600051,-10.1481735861989
70,1200500,Sena Madureira (AC),3651,3780,3876,4226,4032,3559,3100,3067,2931,2297,1753,1370,1083,969,653,503,292,117,60,20,4,41349,23760,1.74,3.24,51.87,48.13,15.683428875504923,5.132670585105097,0.09191398785767844,75.26546210966791,3.8265244418644024,4.065984568125196,79.41,82.41,38029.0,25112.0,0.54,54.15,33.57,26.01,10.88,39.75,4.18,28.76,33.57,9.51,52.76,1.05,320.8,73.59,7.56,15.03,278.81,0.0,0.0,0.0,-68.655684061692,-9.065339505
71,1200609,Tarauacá (AC),4713,4743,5010,5065,4287,3529,2992,2803,2556,1868,1541,1231,1007,746,563,365,241,124,62,13,8,43464,20169,2.15,3.8,52.46,47.54,19.02220177154032,7.799378810537213,0.13344069941332107,65.3836420108133,7.661336707695847,8.68474935008167,65.87,78.51,35590.0,19351.0,0.65,46.98,29.57,38.76,9.56,38.01,3.17,16.14,29.57,4.08,64.5,0.69,251.53,68.21,7.19,3.24,398.94,0.0,0.0,0.0,-70.7555010628937,-8.15566859176562
72,1200708,Xapuri (AC),1603,1625,1615,1756,1553,1552,1376,1267,1255,1057,864,794,635,481,336,237,123,59,42,7,6,18243,5351,3.41,2.99,51.58,48.42,17.16274735514992,8.00306967055857,0.21926218275502932,74.3846954996437,0.2302252918927808,0.23570684646165652,79.77,85.39,16091.0,10330.0,0.58,54.41,31.4,36.25,10.08,36.74,7.92,25.83,31.4,4.76,46.94,1.29,382.24,71.38,7.66,7.08,159.41,0.0,0.0,0.0,-68.5062948050463,-10.6520719403355
73,1200807,Porto Acre (AC),1441,1523,1498,1613,1389,1167,1108,1123,1179,992,894,761,635,536,383,216,132,71,20,8,4,16693,2604,6.41,3.06,51.96,48.04,20.894985922242856,13.029413526627929,0.32947942251243034,65.2608877972803,0.4852333313364884,0.4912238662912598,79.97,83.98,14880.0,1982.0,0.6,39.94,28.04,33.28,6.66,41.14,3.52,16.14,28.04,3.93,50.45,0.69,319.71,71.24,8.35,0.69,242.51,0.0,0.0,0.0,-67.5405900835194,-9.60085823118788
74,1300029,Alvarães (AM),1948,1805,1779,1803,1613,1319,1133,960,825,653,534,436,334,254,179,143,80,40,18,7,3,15866,5923,2.68,4.66,51.91,48.09,6.554897264590949,2.8740703390898776,0.012605571662674902,71.80763897642758,18.750787848228917,35.226270011345015,64.06,87.63,14088.0,7887.0,0.58,38.91,12.44,46.48,4.58,25.7,15.25,40.43,12.44,4.49,72.73,5.93,178.67,71.69,5.96,1.46,371.71,0.0,0.0,0.0,-64.8135346775686,-3.21658376906639
75,1300060,Amaturá (AM),1366,1377,1258,1087,1009,875,694,681,558,452,394,321,226,191,120,93,66,31,15,4,1,10819,4754,2.28,5.01,51.32,48.68,2.7174415380349384,3.419909418615399,0.009242998428690266,37.18458267862094,56.668823366300025,91.94934836861077,51.03,85.13,9467.0,4960.0,0.64,34.26,15.61,58.84,7.15,25.93,2.27,24.41,15.61,8.97,69.07,15.45,178.69,71.36,7.18,7.82,237.26,20.588235294117645,2169.0,5.50961248,-68.2096146409404,-3.36680518750561
76,1300086,Anamã (AM),1019,1043,1023,1148,960,837,717,683,618,502,421,316,224,185,105,73,47,26,11,2,2,9962,2446,4.07,4.29,52.32,47.68,12.698253362778559,2.7604898614735998,0.02007628990162618,78.01646255771934,6.504717928126882,9.74703874723951,90.14,87.76,10214.0,4174.0,0.58,54.84,10.53,54.02,5.58,28.22,3.95,34.69,10.53,9.03,67.42,3.27,226.82,69.48,8.65,9.61,292.57,0.0,0.0,0.0,-61.4059034797501,-3.57637042689027
77,1300102,Anori (AM),1609,1883,1712,1766,1638,1307,1295,1241,1141,949,708,578,520,322,211,140,90,49,23,8,4,17194,6036,2.85,4.13,52.27,47.73,11.509829010119809,6.170757240897988,0.04071187623589624,79.76619751075957,2.5125043619867395,2.97778294753984,97.21,86.82,16317.0,10000.0,0.6,54.24,16.47,54.17,9.48,26.1,2.33,36.74,16.47,9.17,65.45,4.0,229.94,70.42,7.27,6.0,216.14,10.880689469431726,1433.0,34.98364338,-61.6589553828779,-3.74538558611889
78,1300144,Apuí (AM),1603,1994,1767,1751,1746,1589,1904,1690,1588,1184,1002,868,762,516,356,165,105,39,12,5,1,20647,54241,0.38,3.55,52.75,47.25,26.08127088681164,8.592047270789946,0.34387562357727514,63.491064077105634,1.4917421417155035,2.8042814936794693,95.86,91.81,18007.0,10595.0,0.56,56.4,18.74,40.93,10.15,30.22,5.05,34.97,18.74,7.15,44.68,0.84,380.62,71.29,8.74,6.08,116.68,0.0,0.0,0.0,-59.8856661047188,-7.1978701516076
79,1300201,Atalaia do Norte (AM),1916,2103,1855,1694,1383,1255,1066,882,761,604,482,358,314,228,136,122,84,36,23,6,6,15314,76508,0.2,4.48,51.51,48.49,9.768838970876322,3.500065299725741,0.0587697531670367,40.263810891994254,46.40851508423665,50.76400679117148,45.67,77.18,15153.0,6893.0,0.65,50.8,14.58,61.59,3.49,25.63,1.33,22.22,14.58,8.62,69.88,1.47,159.21,68.95,4.63,4.67,273.16,0.0,0.0,0.0,-70.1879892845226,-4.36615748971603
80,1300300,Autazes (AM),4496,4416,4372,4283,3639,3180,2846,2628,2567,2074,1769,1596,1222,944,605,425,256,152,55,23,16,41582,7653,5.43,3.78,52.56,47.44,10.72081609084785,2.2471369454335486,0.0601482051775575,49.68241747666249,37.28948128187855,49.19401405062073,79.76,89.87,32135.0,13893.0,0.59,50.58,16.1,44.01,9.85,31.55,5.19,33.53,16.1,5.41,67.07,1.97,228.43,72.91,8.11,0.97,402.06,0.0,0.0,0.0,-59.1335670918168,-3.57866364177127
81,1300409,Barcelos (AM),2367,2231,2022,1824,1697,1467,1231,1190,1047,899,760,591,495,404,239,161,120,61,16,10,2,18831,122461,0.15,4.4,52.29,47.71,6.0528830837846455,2.5538918976319422,0.07964319847085059,38.91897631942232,52.39460550069024,75.27875119464798,60.12,78.71,25718.0,11157.0,0.74,36.39,29.84,38.59,8.09,36.28,2.16,23.35,29.84,19.31,72.88,4.09,237.29,68.69,4.34,2.87,121.2,6.986973439350363,1248.0,0.504977,-62.9256696581026,-0.972801052532191
82,1300508,Barreirinha (AM),3406,3423,3626,3568,2927,2416,2055,1892,1677,1397,1115,1018,770,633,371,345,202,125,46,30,9,31065,5752,5.4,4.48,52.2,47.8,8.296029113394093,8.3894238510837,0.04186660655051368,63.444011465009176,19.828668963962514,26.659366848088627,71.15,93.96,27355.0,12418.0,0.6,50.77,10.5,57.24,6.56,23.86,3.12,33.49,10.5,11.81,74.59,4.3,148.28,71.45,8.21,2.8,379.89,7.643504531722055,621.0,6.1956756,-57.0677504898938,-2.7981498369298
83,1300607,Benjamin Constant (AM),4577,4600,4452,4012,3402,3011,2568,2424,1962,1496,1337,1084,818,671,441,334,236,129,70,17,7,37648,8705,4.32,4.85,50.67,49.33,6.324373140671483,3.314917127071823,0.010624734381640459,51.604334891627715,38.74575010624734,47.30928601784956,65.57,87.3,33411.0,20138.0,0.56,52.48,16.12,46.65,8.92,30.08,3.72,32.43,16.12,6.8,71.69,8.22,211.1,70.78,8.79,2.44,255.23,14.503918183025636,5734.0,37.28569989,-70.0273484332765,-4.37498901860391
84,1300631,Beruri (AM),2538,2434,2380,2487,2009,1614,1332,1277,1120,832,712,577,428,391,211,161,111,60,31,10,3,20718,17473,1.19,4.54,52.1,47.9,11.415194516845254,3.6972680760691183,0.028960324355632783,75.21961579303021,9.638961289699779,13.196254464716672,71.53,82.99,15486.0,7778.0,0.65,48.26,9.9,58.56,6.19,24.13,3.41,31.15,9.9,5.66,74.68,9.36,193.4,68.85,6.83,6.84,434.14,0.0,0.0,0.0,-61.3715708916659,-3.89451340981806
85,1300680,Boa Vista do Ramos (AM),2545,2467,2383,2374,2374,2017,1704,1560,1495,1093,913,641,572,501,375,251,211,129,139,33,8,23785,2589,9.19,5.17,52.56,47.44,3.880597014925373,1.248686146731133,0.029430313222619298,92.68446499894891,2.156821526171957,6.49989489173849,64.86,95.63,14979.0,7550.0,0.59,49.07,19.72,56.23,5.87,29.17,3.29,24.87,19.72,7.61,75.22,7.17,175.55,69.99,7.83,13.68,293.9,10.512189666741222,0.0,0.0,-57.5877073464737,-2.97172653158936
86,1300706,Boca do Acre (AM),3075,3207,3309,3598,3266,2930,2696,2468,2414,1991,1665,1376,1098,899,574,385,262,136,64,20,14,35447,21939,1.62,3.48,51.89,48.11,22.879228143425394,6.674753857872316,0.1325923209298389,64.98434282167743,5.329082856095015,8.872401049454115,60.47,80.16,30632.0,19348.0,0.63,46.72,24.19,37.08,13.56,35.99,5.65,24.75,24.19,8.63,51.55,1.71,288.42,71.59,7.53,5.57,253.93,9.866951539283287,3970.0,2.81390571,-67.3995777566805,-8.75124319609379
87,1300805,Borba (AM),3604,3327,3545,3667,3019,2704,2261,2244,1998,1532,1261,1042,884,718,463,355,214,106,53,41,42,33056,44236,0.75,4.13,52.5,47.5,10.426239419588876,3.1801692865779927,0.08464328899637243,66.78960096735187,19.519347037484884,28.39782345828295,79.5,88.88,34961.0,14434.0,0.64,52.71,12.51,49.06,7.63,25.85,9.35,33.82,12.51,9.96,74.85,3.85,219.83,71.53,7.92,6.48,211.4,0.0,0.0,0.0,-59.5945590194969,-4.39061989147273
88,1300839,Caapiranga (AM),1310,1291,1401,1511,1385,1171,1008,863,809,705,560,410,356,284,186,122,56,22,14,4,1,13473,9456,1.42,4.51,52.02,47.98,11.732382861810352,2.970223509319076,0.022276676319893073,84.99294571916536,0.28217123338531225,5.605464399732719,81.39,91.71,10975.0,5140.0,0.58,43.98,16.3,44.27,5.07,33.36,2.17,40.16,16.3,5.37,65.16,6.5,235.49,71.49,7.77,8.09,219.9,0.0,0.0,0.0,-61.2113341331817,-3.3300933919416
89,1300904,Canutama (AM),1357,1618,1564,1636,1505,1376,1242,1192,1102,985,868,829,596,422,250,150,105,47,18,5,2,16869,33643,0.5,3.7,53.56,46.44,18.98494011621013,4.0080635598245,0.04743270484999407,70.17668682556622,6.782876793549152,15.561088386982039,81.07,81.11,12738.0,6682.0,0.61,49.41,19.35,62.9,4.87,24.9,1.92,23.5,19.35,4.82,51.74,3.89,206.44,70.1,6.86,11.36,335.0,0.0,0.0,0.0,-64.3942308189288,-6.52910607582614
90,1301001,Carauari (AM),2917,3086,2998,3207,2772,2527,2055,1993,1708,1310,1068,936,695,519,383,271,158,84,43,9,3,28742,25779,1.11,3.96,51.29,48.71,19.011168713684285,6.593368358790578,0.03479350057409276,72.84019345186319,1.5204759750878536,5.702456335676014,75.08,81.99,25774.0,19744.0,0.54,51.44,24.55,37.93,9.99,37.61,3.1,23.67,24.55,4.29,59.13,11.08,222.32,69.68,7.22,1.43,413.2,10.204649867743283,2502.0,26.22256692,-66.8966352816837,-4.88166590420413
91,1301100,Careiro (AM),2690,3019,3156,2896,2305,2144,1919,2075,2042,1815,1513,1441,1281,1062,652,410,218,102,35,12,5,30792,6096,5.05,3.39,51.96,48.04,18.066380878150166,4.946089893478826,0.1721226292543518,73.48337230449468,3.33203429462198,10.882696804364771,82.14,87.06,32734.0,9437.0,0.66,36.6,23.58,46.14,9.58,29.15,4.41,36.53,23.58,7.76,68.87,1.05,197.06,71.76,7.91,1.13,193.99,0.0,0.0,0.0,-60.3638098437089,-3.82244727004599
92,1301159,Careiro da Várzea (AM),1696,1820,1810,1865,1487,1418,1253,1303,1305,1254,1187,963,749,600,373,290,150,80,24,9,1,19638,2627,7.47,3.39,52.42,47.58,16.11326135669179,5.189447952739865,0.10694642493379507,72.48930535750662,6.101038908127928,12.5070020878953,78.19,87.09,23930.0,1000.0,0.57,44.95,10.5,73.51,3.53,19.27,1.2,50.65,10.5,4.79,49.87,3.89,207.18,71.76,7.62,3.02,269.51,0.0,0.0,0.0,-59.8263140608339,-3.1973965948696
93,1301209,Coari (AM),7280,7276,7413,7707,6807,5681,4833,4887,4590,3700,2698,2143,1793,1469,966,617,411,224,74,27,20,70496,57971,1.22,4.01,50.81,49.19,12.392726654771009,5.855779307219532,0.11612428130399072,75.45529215169796,6.180077605007506,13.668290472414183,80.36,86.34,75965.0,49651.0,0.64,50.61,28.5,33.63,11.41,38.92,3.04,35.1,28.5,11.64,65.54,1.87,347.2,71.79,7.65,2.55,237.31,28.317201048598506,5421.0,14.50625353,-63.1421839840562,-4.08421915877588
94,1301308,Codajás (AM),2465,2393,2429,2626,2176,1845,1705,1647,1493,1146,883,808,638,499,315,226,142,60,30,17,6,23549,18701,1.26,4.21,51.89,48.11,13.181026795193002,4.369612297762114,0.025478788908233897,82.25402352541509,0.1698585927215593,0.3227313261709627,87.09,86.18,23206.0,15806.0,0.61,48.06,16.49,50.99,10.54,27.18,3.03,50.29,16.49,9.24,68.04,5.81,239.64,71.49,7.94,5.06,253.18,9.51641095358322,1205.0,47.04991195,-62.0634296604883,-3.84304593273892
95,1301407,Eirunepé (AM),3468,3683,3725,3833,3003,2643,2285,2186,2106,1561,1154,1008,774,631,413,315,197,106,49,23,7,33170,14966,2.22,4.07,50.71,49.29,18.999668365039646,7.383400162802617,0.030148632759504353,67.78920075974555,5.797582079652687,8.429303587579136,55.13,74.72,30665.0,22166.0,0.62,55.7,17.23,38.95,12.66,34.9,5.4,28.63,17.23,7.63,53.4,3.39,241.86,70.37,7.73,4.96,357.13,11.395087894277522,3846.0,9.07946801,-69.8662902624416,-6.66735256685182
96,1301506,Envira (AM),1933,1936,1730,1887,1738,1458,1211,1148,1119,780,610,528,353,275,168,118,79,69,38,7,1,17186,7506,2.29,4.1,51.15,48.85,25.568810008728544,6.383473959848705,0.011638056444573757,62.14140238580157,5.894675589176607,7.349005004073082,46.43,73.69,16338.0,10552.0,0.64,44.03,12.94,37.11,9.04,43.94,2.11,15.86,12.94,12.51,55.43,5.44,204.98,68.63,6.33,12.78,390.01,10.571207030240371,593.0,18.22316462,-70.0304125429825,-7.43981754396838
97,1301605,Fonte Boa (AM),2960,2797,2720,2819,2622,2166,1802,1750,1472,1215,977,722,588,454,311,218,141,89,31,8,9,25871,12155,2.13,4.81,51.61,48.39,10.792840851985002,4.789516409602227,0.011596892032935173,71.30155784916309,13.104487997216745,30.134127014804218,62.09,86.07,22817.0,15115.0,0.62,49.77,12.15,55.49,7.38,27.71,4.29,26.93,12.15,6.47,72.65,8.01,200.4,68.13,7.37,0.28,304.66,0.0,0.0,0.0,-66.0965029898347,-2.51227068454779
98,1301654,Guajará (AM),1330,1425,1516,1554,1417,1138,968,953,839,626,526,479,361,245,175,123,74,40,11,10,5,13815,7584,1.82,3.82,51.47,48.53,22.019543973941367,5.70394498733261,0.07962359753890698,71.50199058993847,0.6948968512486429,2.395946435034383,50.83,77.64,13974.0,7427.0,0.74,34.48,20.56,49.63,4.87,37.0,1.71,10.5,20.56,3.45,66.36,1.08,191.04,70.7,6.97,9.0,360.16,2.1420824295010847,887.0,6.40224273,-72.5824305383396,-7.5477744148336
99,1301704,Humaitá (AM),5460,5731,5109,5468,5722,5111,4832,4185,3745,2903,2488,1847,1574,1256,843,581,342,180,67,19,10,57473,33111,1.74,3.98,51.32,48.68,21.606667478642144,6.2933899396238235,0.10613679466880101,66.87140048370539,5.122405303359838,8.27171019435213,84.7,88.74,44227.0,30501.0,0.66,45.98,34.33,30.73,10.25,39.65,4.59,29.8,34.33,9.9,56.12,0.56,382.13,72.47,7.53,2.57,207.2,0.0,0.0,0.0,-63.0266980219283,-7.51222495061139
100,1301803,Ipixuna (AM),3071,2838,2500,2614,2737,2089,1815,1653,1355,1000,791,562,463,336,192,138,83,35,21,9,9,24311,12110,2.01,5.0,51.02,48.98,18.330659426549836,4.701962236208812,0.10695627133983299,68.02418857213378,8.836233493767741,9.612932417424211,36.81,75.84,22254.0,9499.0,0.58,43.82,6.93,61.01,7.59,25.68,3.3,28.77,6.93,5.09,68.8,6.94,154.54,71.32,5.51,5.42,206.82,13.22617033276932,2309.0,16.2294189,-71.6944180603084,-7.05098011443721
101,1301852,Iranduba (AM),5587,5539,5632,5669,5177,4765,4281,4522,4365,3646,3115,2597,2263,1689,1049,578,399,174,75,28,13,60993,2217,27.51,3.43,51.28,48.72,16.295799748213792,5.738763631607345,0.20273694880892043,76.33700112813302,1.4256985432369242,4.071088730114612,93.7,91.14,40781.0,28979.0,0.56,50.09,28.72,29.03,13.97,32.46,12.8,35.41,28.72,6.37,62.14,1.34,349.23,72.94,8.12,3.18,296.18,25.373346607879395,14840.0,14.11108083,-60.1933881661307,-3.2810538776069
102,1301902,Itacoatiara (AM),9012,9621,10141,10525,9505,8092,7159,7585,7339,6062,4805,3926,3346,2528,1660,1105,657,333,126,39,32,103598,8892,11.65,3.73,51.03,48.97,15.725662435445726,4.841932525701047,0.10328683816786524,77.5220811815242,1.8070370191611567,7.731809494391784,92.12,93.93,86839.0,58157.0,0.59,52.48,32.14,28.31,16.3,36.85,5.9,31.61,32.14,9.35,59.14,1.08,373.71,73.66,8.76,2.39,179.08,25.707818213477278,1111.0,142.23348824,-58.4401754367571,-3.14037880391635
103,1301951,Itamarati (AM),1345,1443,1219,1276,1103,933,711,688,578,434,325,266,183,154,120,83,45,14,12,3,2,10937,25260,0.43,4.68,51.71,48.29,19.776904087043977,4.873365639572095,0.036573100484593585,57.93179116759624,17.3813660053031,17.856816311602817,38.77,73.56,8038.0,4472.0,0.8,32.52,14.67,56.67,2.83,34.5,2.01,22.13,14.67,6.56,59.27,3.13,214.95,71.32,5.84,0.0,461.25,0.0,0.0,0.0,-68.2479174359782,-6.43779934861918
104,1302009,Itapiranga (AM),941,986,1062,1006,905,774,742,689,700,555,442,396,325,242,163,111,71,37,9,3,3,10162,4335,2.34,3.89,51.39,48.61,14.770714426294038,3.4245227317457196,0.14760873843731548,81.0273568195237,0.6297972839992128,3.2178704979334776,86.37,94.08,8211.0,6451.0,0.67,50.02,21.54,27.25,13.35,42.93,7.35,30.84,21.54,9.36,61.75,2.37,321.94,72.54,8.16,0.0,209.25,0.0,0.0,0.0,-58.0345458839662,-2.74184275232884
105,1302108,Japurá (AM),1227,1093,960,927,963,786,585,537,460,338,292,239,158,121,80,35,36,9,6,0,6,8858,55827,0.16,5.05,52.91,47.09,10.635655413796997,5.633961838094162,0.011290504685559444,61.600993564412335,22.118098679010952,29.442312034319258,65.53,87.61,7326.0,3298.0,0.59,48.61,5.82,41.93,4.49,37.29,1.99,36.6,5.82,12.52,73.99,0.6,248.6,69.85,6.09,18.69,566.59,0.0,0.0,0.0,-66.9969034946413,-1.880844858703
106,1302207,Juruá (AM),1149,1184,1093,1254,1163,952,761,710,624,503,359,292,225,169,110,79,58,37,12,3,5,10742,19443,0.55,4.24,51.86,48.14,12.511636566747347,8.778625954198473,0.07447402718301992,71.51368460249488,7.12157884937628,11.273505864829641,80.82,79.36,10802.0,5686.0,0.6,57.93,2.97,58.91,4.45,25.63,1.43,40.61,2.97,7.94,67.17,4.79,227.39,67.24,6.02,5.28,200.72,0.0,0.0,0.0,-66.0630419255434,-3.47488959889068
107,1302306,Jutaí (AM),3299,3314,3185,2948,2424,1962,1605,1544,1289,929,750,566,424,317,237,184,111,49,22,10,3,25172,69457,0.36,5.16,51.49,48.51,7.953281423804228,2.4948355315429844,0.0436993484824408,67.14206260924837,22.36612108692198,32.4606705863658,65.89,84.1,17992.0,10552.0,0.69,54.42,4.98,58.88,8.75,23.23,3.87,34.93,4.98,5.13,77.25,7.38,214.36,70.93,6.37,6.52,419.04,0.0,0.0,0.0,-66.7713275466878,-2.74464644685786
108,1302405,Lábrea (AM),4869,4313,4439,4785,4595,3906,3396,3303,2960,2154,1787,1480,1164,861,582,411,242,126,59,12,4,45448,68263,0.67,4.02,52.16,47.84,16.075514874141877,4.495247315613448,0.1034148917444112,61.12040133779264,18.205421580707622,26.502816405562402,71.87,80.4,37701.0,24207.0,0.59,55.19,15.04,51.12,9.31,27.64,3.78,30.56,15.04,9.3,59.85,4.67,227.62,69.62,7.01,3.29,355.28,14.66419004790302,4154.0,24.3253863,-64.79477302752,-7.26194655332705
109,1302504,Manacapuru (AM),9617,9862,9755,10567,9523,8211,7619,7218,6774,5402,4369,3729,3069,2336,1585,1062,656,288,147,65,29,101883,7337,13.89,3.78,51.02,48.98,12.386757358931323,3.8259572254448733,0.04711286475663261,82.92551259778374,0.8146599530834387,3.7543064102941606,91.23,88.97,85141.0,60174.0,0.56,52.72,23.46,34.52,16.44,30.85,8.0,41.17,23.46,9.81,64.38,1.82,342.58,72.69,8.63,3.05,259.76,8.33901308615049,2748.0,5.80362093,-60.6205894458706,-3.29827803546755
110,1302553,Manaquiri (AM),1630,1701,1670,1593,1362,1275,1105,1121,1136,997,847,766,638,479,336,238,111,67,25,7,3,17107,3973,4.31,3.45,51.95,48.05,12.591336879639915,4.1561933711346235,0.08183784415736248,77.32507160811363,5.845560296954463,12.39258782954346,87.03,88.58,22801.0,7062.0,0.57,48.39,11.21,64.17,7.74,20.66,2.93,51.52,11.21,8.0,66.25,2.96,254.15,69.88,8.15,5.2,164.67,0.0,0.0,0.0,-60.4588813063745,-3.42907966935262
111,1302603,Manaus (AM),153636,169175,162708,170508,186449,180961,164135,172209,167172,135513,111450,89635,71893,52399,34251,20134,11770,6199,2510,776,206,2063547,11401,181.0,3.27,48.4,51.6,23.728930188562213,5.579574882148617,0.21627085659347475,69.56158510110409,0.9136389715916139,3.473924607826082,99.16,97.02,1802014.0,1792881.0,0.61,57.59,61.26,1.31,18.1,47.54,16.37,20.52,61.26,11.59,50.19,3.26,790.27,74.54,9.51,1.51,68.64,53.37942310224152,295910.0,66.33301622,-60.023335181061,-3.13469149120195
112,1302702,Manicoré (AM),6033,5424,5041,5462,5261,4604,4046,3680,3346,2591,2132,1718,1435,1140,829,538,350,163,72,31,18,53914,48315,1.12,4.42,51.17,48.83,17.37396594576548,3.904366212857514,0.08161145528063211,72.01839967355419,6.621656712542197,15.36706606818266,71.06,89.56,47017.0,20349.0,0.6,52.13,14.28,47.31,10.45,24.79,8.59,46.18,14.28,8.14,67.24,1.81,295.23,69.83,8.2,3.55,180.0,0.0,0.0,0.0,-61.2992484088508,-5.81320526118813
113,1302801,Maraã (AM),2056,1901,1774,1880,1569,1282,980,981,791,607,476,374,325,225,128,91,54,19,8,4,4,15520,16831,0.92,5.09,52.32,47.68,9.325690732272815,4.978424679590391,0.057963547369098985,72.55104012365557,13.08688091711213,19.602034902440597,66.76,84.33,17528.0,8753.0,0.69,43.6,10.64,61.78,3.91,26.58,0.73,23.09,10.64,18.05,82.75,6.9,144.99,70.78,6.02,3.93,424.78,0.0,0.0,0.0,-65.5742837031641,-1.86643687730125
114,1302900,Maués (AM),7279,7062,6703,6581,5388,4508,4074,3947,3506,2756,2179,1870,1720,1444,884,539,370,222,126,40,6,61204,39991,1.53,4.59,52.35,47.65,8.218417096921769,2.295601594667015,0.05555192471080322,76.18783086072806,13.242598522972354,18.624599699366055,62.5,93.84,52236.0,25832.0,0.64,52.14,18.91,50.79,9.2,27.98,4.93,37.73,18.91,4.19,71.87,2.59,244.3,72.97,9.26,3.68,345.08,0.0,0.0,0.0,-57.7150343867525,-3.38642792621106
115,1303007,Nhamundá (AM),2056,2197,1796,1983,1684,1642,1589,1384,1240,1009,843,772,593,490,342,221,160,79,39,14,3,20135,14107,1.43,4.38,51.55,48.45,7.136471990464839,1.7232816845450933,0.01986491855383393,86.20381406436233,4.916567342073898,5.313865713150577,74.36,93.22,18278.0,7010.0,0.65,44.73,10.38,54.61,7.91,23.74,4.64,47.81,10.38,14.55,66.54,4.94,195.12,71.73,8.85,5.94,378.41,0.0,0.0,0.0,-56.7167699133376,-2.1889837668969
116,1303106,Nova Olinda do Norte (AM),3054,3035,2904,2946,2467,2155,1786,1713,1513,1270,1026,890,727,633,366,223,143,92,50,42,27,27062,5578,4.85,4.16,51.88,48.12,11.850565368413275,3.4476387554504475,0.04803783903628704,72.11588204862908,12.537875988470917,26.261917079299383,78.21,91.02,30696.0,13626.0,0.63,57.02,17.73,55.92,7.88,27.73,1.52,32.6,17.73,5.54,75.07,0.78,232.07,71.81,6.99,4.36,206.09,0.0,0.0,0.0,-59.0930740260433,-3.88759283191138
117,1303205,Novo Airão (AM),1603,1760,1689,1569,1211,1232,1116,1137,987,765,643,605,437,398,273,144,113,47,19,12,1,15761,37777,0.42,3.77,51.06,48.94,11.18583846202652,6.8269779836304805,0.07613730093268194,63.97436710868599,17.93667914472432,30.905399403591144,78.35,89.57,14723.0,9499.0,0.59,49.15,25.32,41.94,7.0,37.51,5.62,25.81,25.32,6.11,69.66,0.68,246.44,71.55,7.37,3.6,186.07,0.6319459577249945,806.0,7.68253405,-60.948810707829,-2.62343245902763
118,1303304,Novo Aripuanã (AM),2402,2279,2318,2564,2365,2056,1721,1580,1473,1150,1005,847,649,517,316,260,152,96,37,11,20,23817,41180,0.58,4.95,52.0,48.0,12.692081618943657,5.483247963724914,0.02519103199261063,79.92274750188932,1.876731883449492,4.840876647913342,73.81,87.97,21451.0,14074.0,0.57,53.79,21.43,45.31,6.84,31.87,4.17,28.08,21.43,9.28,68.11,2.63,219.69,70.52,7.58,13.96,266.2,0.0,0.0,0.0,-60.3770456690009,-5.12266931419617
119,1303403,Parintins (AM),8770,9005,9244,10245,9396,7856,6667,6781,6128,5110,4117,3557,3037,2365,1704,1057,644,417,179,62,31,96372,5956,16.18,4.02,50.55,49.45,10.903109985783516,3.2957340168314877,0.13075015306069504,83.64066537300113,2.0297404713231706,5.865811646536338,86.3,95.93,102033.0,69890.0,0.59,50.21,24.82,26.5,16.4,40.82,6.66,35.11,24.82,9.05,65.05,2.68,313.07,72.97,9.45,1.38,215.41,18.05815083339562,10153.0,82.0230356,-56.7362921451951,-2.62705258583723
120,1303502,Pauini (AM),2110,2214,2099,2243,2166,1594,1343,1265,1143,799,629,517,398,295,227,150,98,48,24,10,1,19373,41625,0.47,4.87,53.12,46.88,14.793785164920251,4.759200949775461,0.03613276209157074,65.36932844680742,15.041552676405306,20.507923398544367,50.29,75.88,18166.0,9264.0,0.72,51.88,7.41,57.7,7.56,27.23,1.62,16.89,7.41,11.19,79.94,2.03,218.21,68.45,4.72,25.0,323.25,0.0,0.0,0.0,-67.0020974885282,-7.71404364432219
121,1303536,Presidente Figueiredo (AM),2714,2886,2974,2923,2514,2293,2086,2157,2170,1872,1583,1431,1136,864,535,287,163,49,22,8,1,30668,25459,1.2,3.26,50.67,49.33,18.495451136400693,6.0749339681090415,0.15325920370430757,72.64812338996315,2.628232301822806,4.209599582626843,92.35,91.41,27175.0,13001.0,0.52,57.33,41.54,35.25,7.41,33.71,6.49,32.08,41.54,5.9,53.39,1.88,396.51,73.1,8.46,3.75,158.67,18.449298206109734,0.0,0.0,-60.0256468344675,-2.058429085233
122,1303569,Rio Preto da Eva (AM),2271,2347,2382,2220,2010,1799,1624,1697,1690,1474,1343,1237,1064,750,508,280,138,59,31,10,2,24936,5816,4.29,3.19,51.56,48.44,16.373917228103945,6.865575874238049,0.1323387872954764,73.58036573628489,3.047802374077639,5.838947706127687,92.91,91.27,25719.0,12205.0,0.55,57.87,23.32,42.38,10.42,36.24,1.92,23.99,23.32,16.58,57.89,1.01,315.24,72.12,8.49,1.74,147.82,2.371328482888709,0.0,0.0,-59.704738094199,-2.6933015416451
123,1303601,Santa Isabel do Rio Negro (AM),1865,1764,1627,1460,1215,1077,968,882,675,637,517,411,335,211,192,160,96,48,19,2,3,14164,62800,0.23,5.15,51.45,48.55,1.6379553798362045,1.383789889861621,0.07766167749223384,12.06580062129342,84.83479243151652,96.17339734538265,49.13,84.1,18146.0,6856.0,0.72,39.54,12.96,50.8,3.36,24.97,15.6,29.29,12.96,5.68,87.59,6.34,141.04,69.2,4.8,0.44,196.85,0.0,0.0,0.0,-65.020022639512,-0.416694831881864
124,1303700,Santo Antônio do Içá (AM),3850,3604,3310,3174,2822,2160,1951,1647,1312,1102,825,691,541,409,315,194,140,75,45,24,20,28211,12366,2.28,5.36,51.0,49.0,4.026798057495303,1.5738541703590798,0.007089433199815675,43.63900606146539,50.75325227748042,66.93133883945978,50.26,85.63,24481.0,12947.0,0.67,40.42,11.46,64.83,6.85,21.54,1.7,18.68,11.46,7.09,77.57,8.71,122.21,70.52,6.49,6.48,478.11,34.05187521906765,6525.0,6.22443391,-67.9464851438841,-3.10748630918151
125,1303809,São Gabriel da Cachoeira (AM),6449,6075,5657,5508,4829,4122,3450,3114,2659,2277,1895,1530,1302,1009,834,507,333,128,63,38,16,51795,109193,0.47,4.83,51.04,48.96,3.24766851383445,0.8611534822652583,0.023170048850186326,7.205885192407948,88.66212276264216,93.16729414036104,46.19,90.6,37896.0,19054.0,0.8,39.15,29.52,40.45,7.26,42.23,2.06,14.18,29.52,4.57,77.78,4.1,355.51,71.59,7.5,1.88,307.95,0.0,0.0,0.0,-67.0836428963463,-0.136462788116522
126,1303908,São Paulo de Olivença (AM),4502,4516,3955,3576,3092,2471,2145,1873,1645,1310,995,784,660,439,360,285,201,91,39,25,3,32967,19659,1.68,5.48,51.43,48.57,2.3782078505126494,0.9312625128920705,0.018200570284535582,36.33743857307529,60.33489049323546,80.74438074438073,48.34,85.2,31422.0,14263.0,0.64,55.01,11.5,76.26,5.8,14.98,1.05,24.59,11.5,3.86,73.51,7.41,150.28,71.77,6.73,1.07,263.63,0.0,0.0,0.0,-68.9448534881358,-3.46650962349132
127,1303957,São Sebastião do Uatumã (AM),1206,1387,1060,1110,1095,1027,895,875,733,577,425,331,298,259,170,120,61,28,6,6,1,11670,10647,1.1,4.33,52.95,47.05,16.91516709511568,2.5278491859468724,0.09425878320479864,79.97429305912597,0.4884318766066838,2.6392459297343613,85.75,94.06,10705.0,5904.0,0.58,56.13,14.13,56.47,8.68,23.82,5.63,33.84,14.13,1.73,73.32,5.19,262.79,69.34,8.01,5.47,177.44,0.0,0.0,0.0,-57.8703463558346,-2.57015257967785
128,1304005,Silves (AM),1167,1330,1310,1117,1010,872,775,759,647,593,460,422,373,310,191,118,58,33,8,4,2,11559,3723,3.1,4.08,52.38,47.62,9.12866660898157,6.411698537682789,0.04326382279138185,80.38418274638747,4.032188284156788,9.222251059780257,80.03,94.49,8444.0,4029.0,0.56,50.38,15.21,50.68,3.59,32.15,2.94,38.34,15.21,11.81,67.9,4.13,238.53,72.47,9.54,18.02,388.01,0.0,0.0,0.0,-58.2148008608269,-2.83642742966584
129,1304062,Tabatinga (AM),7720,8043,7296,7115,6507,5271,4805,4270,3674,2961,2514,1972,1593,1110,813,491,343,163,65,28,10,66764,3260,20.48,4.8,49.92,50.08,9.839429615649621,2.802492435816782,0.10335220634492676,46.03666756538151,41.21805817680716,51.670061709903536,72.33,90.45,52272.0,36355.0,0.65,50.12,28.55,32.9,12.38,43.35,2.5,26.71,28.55,8.5,66.49,6.87,338.4,71.12,8.26,0.24,161.56,7.512355848434926,1971.0,24.4217945,-69.9462443752272,-4.23188367564665
130,1304104,Tapauá (AM),2068,2015,2044,2094,1902,1596,1520,1470,1284,853,707,570,495,381,258,169,102,40,19,9,3,19599,84946,0.23,4.07,52.31,47.69,12.226361177731285,5.271214981884982,0.010205643720977702,68.21962545287545,14.272592743787316,18.633603755293638,70.19,79.19,19077.0,10618.0,0.6,58.45,18.09,57.26,6.71,27.93,2.71,32.78,18.09,4.93,63.26,7.67,193.97,66.61,6.35,14.48,180.47,0.0,0.0,0.0,-63.1870948671802,-5.62422351778794
131,1304203,Tefé (AM),8314,7632,7525,8335,7378,6111,5209,5051,4533,3484,2713,2077,1679,1313,924,624,397,226,87,34,23,73669,23692,3.11,4.21,51.19,48.81,9.000081448700893,3.780577199793663,0.057014090625254525,76.5875709282437,10.574756332636493,27.68328604976313,80.87,90.16,61453.0,50069.0,0.62,49.11,32.57,27.62,17.97,41.29,4.6,32.01,32.57,6.88,65.68,3.13,421.41,73.04,8.49,2.32,245.6,22.96603475513428,8893.0,53.06130242,-64.7084196633027,-3.34837249394151
132,1304237,Tonantins (AM),2634,2332,2191,2128,1898,1609,1400,1206,1020,697,529,462,339,283,188,139,106,52,26,4,4,19247,6447,2.99,5.69,51.73,48.27,3.6784953499246638,1.3248817997610016,0.0,56.79326648308828,38.20335636722606,55.364472385306804,55.4,86.88,17079.0,8899.0,0.54,46.29,18.54,52.18,8.04,29.98,3.44,31.47,18.54,6.29,68.99,5.02,189.15,71.74,7.3,2.21,321.25,24.921585400627315,2258.0,12.85001056,-67.7764822806952,-2.86109124983543
133,1304260,Uarini (AM),1692,1484,1697,1770,1475,1175,1038,946,835,632,482,355,268,233,130,99,63,32,17,4,4,14431,10275,1.4,4.67,52.96,47.04,7.955647955647955,1.774081774081774,0.0693000693000693,71.25433125433125,18.946638946638945,25.133393389231518,73.21,88.07,11891.0,6795.0,0.61,60.35,6.39,70.87,3.96,20.94,1.0,47.32,6.39,1.54,76.13,8.38,223.11,68.43,6.94,3.94,373.71,0.0,0.0,0.0,-65.1553456401554,-2.9836092426921
134,1304302,Urucará (AM),1641,1704,1826,1826,1658,1461,1338,1390,1360,933,880,679,671,499,343,212,121,58,20,8,3,18626,27902,0.67,4.34,52.54,47.46,10.911920991895228,1.7497718855670654,0.09124577317374268,86.2057860554989,1.0412752938650636,6.118834201062745,89.63,94.23,17094.0,9886.0,0.6,49.22,22.64,47.67,11.82,29.18,3.2,33.35,22.64,6.46,65.54,6.35,246.99,70.26,8.87,9.29,302.63,0.0,0.0,0.0,-57.7598281745956,-2.53661167184038
135,1304401,Urucurituba (AM),1952,2320,2090,2406,2439,2285,2012,1761,1499,1298,1002,779,723,584,321,209,123,64,32,24,22,23945,2886,8.3,4.52,50.63,49.37,13.372311547295887,2.476508665692211,0.2756316558780539,83.70432240551263,0.1712257256212153,7.208185424932136,83.16,93.7,17837.0,10448.0,0.58,52.13,15.19,54.4,10.79,26.21,2.97,38.28,15.19,9.62,72.31,3.45,227.55,71.53,8.28,4.35,294.59,6.233517142172141,0.0,0.0,-58.1596410413098,-3.1346331156473
136,1400027,Amajari (RR),2071,1846,1652,1500,1130,918,792,779,688,560,537,437,388,284,167,83,55,22,15,2,1,13927,28473,0.49,4.58,52.38,47.62,7.022330724491995,3.7265742801751998,0.09334386443598765,23.6447188913621,65.51303223953472,69.51245781575356,44.29,68.17,9327.0,1219.0,0.75,29.61,19.21,41.63,3.23,43.2,1.66,11.14,19.21,22.62,73.68,1.61,121.32,73.9,4.72,3.62,209.0,0.0,0.0,0.0,-61.4205901726631,3.6521184454459
137,1400050,Alto Alegre (RR),3144,2715,2424,2194,1778,1399,1131,1145,1141,919,803,694,525,421,304,188,94,51,20,3,3,21066,25454,0.83,4.16,52.03,47.97,7.617557830868411,3.3086841107318925,0.023701175578308684,30.711983314372393,58.338073568449,60.34793325748957,46.89,63.19,16448.0,4780.0,0.73,51.32,21.97,56.05,4.18,26.26,1.01,17.25,21.97,4.42,68.01,1.29,201.32,73.78,5.66,4.41,291.51,0.0,0.0,0.0,-61.3140223901178,2.99382294765484
138,1400100,Boa Vista (RR),37337,37033,34279,35300,40291,39293,35080,34299,30645,23737,19021,15334,11596,8457,5400,3112,1793,926,385,126,42,413486,5687,72.71,3.39,49.35,50.65,24.74892100785008,8.50582280564586,0.14668967871087368,62.186257162014634,4.4123093457785565,4.936080060751754,98.95,96.43,284313.0,277799.0,0.58,59.51,56.73,4.37,16.18,55.1,3.75,20.0,56.73,8.06,44.85,0.67,786.55,73.95,9.5,0.96,78.57,3.3051096799503092,1157.0,0.95636211,-60.6705326729651,2.81668191910439
139,1400159,Bonfim (RR),1824,1768,1575,1447,1152,953,879,781,703,642,540,496,386,303,218,110,89,37,14,5,1,13897,8080,1.72,3.96,51.96,48.04,7.239819004524888,3.8353803059685414,0.043094160741219564,45.543345543345545,43.33836098541981,46.45550527903469,69.17,91.31,10943.0,3711.0,0.72,51.97,22.04,44.01,7.04,34.76,4.4,26.15,22.04,5.47,69.88,4.86,329.22,73.52,8.2,3.25,364.09,0.0,0.0,0.0,-59.8780066289099,3.35028861911032
140,1400175,Cantá (RR),2064,2034,1963,1661,1330,1266,1173,1203,1130,1001,944,859,727,582,366,208,103,51,16,0,1,18682,7665,2.44,3.42,53.31,46.69,13.40327588052671,6.128894122684938,0.026763729793384008,56.39653142061878,24.04453484637619,28.016272347714377,92.63,90.81,13902.0,2257.0,0.66,43.27,25.7,43.95,4.45,35.08,4.31,34.99,25.7,5.61,64.07,1.63,297.59,73.19,8.58,0.89,239.85,0.0,0.0,0.0,-60.6020628476112,2.60766639841651
141,1400209,Caracaraí (RR),2175,2248,2056,1934,1676,1448,1344,1470,1364,1181,1004,958,722,582,360,213,135,53,22,5,7,20957,47380,0.44,3.43,52.14,47.86,16.12826263301045,8.503125447344564,0.2433554420957198,69.22269408789425,5.9025623896550075,6.074342701722575,89.5,87.01,18398.0,10910.0,0.56,49.6,29.94,34.09,10.51,35.74,3.33,33.39,29.94,10.11,64.14,0.97,336.05,71.77,8.07,0.94,247.62,0.0,0.0,0.0,-61.14917687013,1.80387124729759
142,1400233,Caroebe (RR),1125,1022,1045,983,891,868,756,824,776,582,470,412,318,242,145,98,71,18,7,1,2,10656,12066,0.88,3.36,53.35,46.65,22.74774774774775,9.919294294294295,0.01876876876876877,59.71283783783784,7.601351351351352,7.601351351351352,89.79,91.69,8114.0,3324.0,0.55,56.14,19.36,47.56,8.21,27.71,2.43,39.79,19.36,7.51,45.95,2.26,334.97,72.48,9.57,2.78,221.4,0.0,0.0,0.0,-59.6948100736757,0.872674507186562
143,1400282,Iracema (RR),1091,1006,988,943,895,730,659,665,627,534,480,414,366,277,170,90,51,26,8,3,0,10023,14012,0.72,3.42,53.04,46.96,13.848149256709569,9.867305198044498,0.09977052778609198,58.884565499351496,17.30020951810835,17.40995709867305,79.77,79.97,8696.0,4078.0,0.62,51.4,23.1,36.24,5.8,35.77,3.88,21.05,23.1,13.66,57.71,1.43,261.18,73.61,7.45,0.99,180.32,0.0,0.0,0.0,-61.0522585850197,2.16821476520387
144,1400308,Mucajaí (RR),1816,1815,1791,1670,1432,1317,1193,1287,1153,1001,946,811,638,456,342,221,120,51,23,9,3,18064,12338,1.46,3.36,51.44,48.56,17.496546007184303,7.184305056645482,0.03868471953578336,71.22409505388228,4.056369162752142,4.089527493782813,92.61,87.67,14792.0,8935.0,0.71,44.53,34.54,26.76,10.11,43.67,3.97,25.69,34.54,6.66,52.22,0.97,487.66,73.79,8.38,1.73,221.89,0.0,0.0,0.0,-60.9115185306216,2.47977223505342
145,1400407,Normandia (RR),2202,2170,1897,1528,1148,977,811,727,616,501,372,297,224,199,126,84,66,26,11,1,3,13669,6960,1.96,5.1,51.58,48.42,2.9672529672529673,0.9652509652509652,0.014300014300014301,19.934219934219936,76.11897611897612,89.08908908908909,41.51,91.82,8940.0,2311.0,0.7,48.16,31.35,36.97,6.93,42.51,2.85,12.18,31.35,32.54,82.4,2.46,203.43,73.06,7.52,4.56,365.93,0.0,0.0,0.0,-59.6352062835683,3.88297828530181
146,1400456,Pacaraima (RR),2586,2548,2205,1908,1726,1565,1319,1206,1059,833,701,527,423,283,175,121,60,29,20,7,4,19305,8025,2.41,4.39,51.14,48.86,14.28802066515983,4.854159939726617,0.03767086427725756,26.213539984931657,54.606608545904635,59.20745920745921,61.32,94.09,10433.0,4514.0,0.74,49.14,30.67,27.47,11.63,42.79,2.02,19.73,30.67,5.54,69.2,1.07,388.35,72.29,8.52,2.73,216.62,0.0,0.0,0.0,-61.1473063471493,4.47525934021226
147,1400472,Rorainópolis (RR),3209,3261,2962,2840,2868,2732,2561,2507,2237,1694,1496,1329,1045,793,570,282,155,74,28,2,2,32647,33580,0.97,3.24,51.6,48.4,18.34165466964805,9.235151775048243,0.15315342910527768,69.7215670658866,2.5484730603118204,2.551536128893926,91.38,90.5,24279.0,10673.0,0.57,54.09,28.07,40.32,9.45,28.4,7.54,21.11,28.07,6.26,51.09,0.36,284.22,72.86,7.54,1.93,154.9,0.0,0.0,0.0,-60.4250604939819,0.937195393597556
148,1400506,São João da Baliza (RR),905,803,823,801,777,732,670,744,617,492,434,301,250,183,138,115,47,15,6,4,1,8858,4285,2.07,3.34,53.48,46.52,20.941521788214043,11.627906976744185,0.05644615037254459,61.289230074508914,6.084895010160308,6.084895010160308,96.26,90.37,6769.0,4755.0,0.53,59.38,34.66,33.17,11.07,32.18,4.4,38.47,34.66,7.0,44.94,0.36,365.67,71.81,8.88,6.28,160.25,0.0,0.0,0.0,-59.9060443451544,0.947157427466681
149,1400605,São Luiz (RR),662,682,611,646,551,603,602,639,512,380,332,314,271,201,156,72,41,27,7,5,1,7315,1527,4.79,3.15,53.21,46.79,20.697197539302802,12.289815447710184,0.16404647983595352,66.43882433356117,0.4101161995898838,0.42378673957621327,95.8,90.0,6750.0,4455.0,0.55,39.67,33.43,26.96,6.03,47.48,2.01,25.26,33.43,9.11,41.44,0.96,344.73,72.29,8.18,4.67,156.75,0.0,0.0,0.0,-60.0282667741903,1.01811162739126
150,1400704,Uiramutã (RR),2541,2292,1942,1520,1066,899,761,667,512,387,307,285,206,119,93,52,67,18,13,2,2,13751,8114,1.69,5.86,51.4,48.6,0.9890189804377864,0.3708821176641699,0.021816595156715878,4.166969674932732,94.45131263180859,96.59661115555232,40.53,87.53,8375.0,1138.0,0.78,54.41,9.84,75.34,0.95,15.31,1.22,5.37,9.84,1.55,88.64,2.76,123.16,70.95,4.73,6.32,417.83,0.0,0.0,0.0,-60.195716148042,4.58544038754255
151,1500107,Abaetetuba (PA),12347,12589,12990,13922,14710,14620,13187,12928,11467,9435,7836,6170,4992,4022,2753,1913,1227,640,274,110,56,158188,1611,98.21,3.67,50.13,49.87,18.761716572934084,10.066752799310938,0.06776612453767036,71.0511982570806,0.052566246136697574,0.05879080587655195,85.94,89.91,141100.0,82998.0,0.53,51.11,32.99,31.83,16.27,31.12,9.05,37.68,32.99,8.66,62.09,2.36,293.01,72.89,8.99,5.64,287.49,2.5812756905918537,0.0,0.0,-48.8844038207231,-1.72346986284591
152,1500131,Abel Figueiredo (PA),512,506,551,524,460,436,428,473,477,343,356,298,254,157,149,108,53,33,10,8,0,7030,614,11.45,3.1,50.73,49.27,19.473684210526315,11.2375533428165,0.0,69.14651493598862,0.1422475106685633,0.1422475106685633,95.69,86.16,6780.0,6034.0,0.57,51.48,26.23,32.82,16.5,30.09,12.32,21.86,26.23,11.56,38.23,1.15,390.12,73.0,8.51,13.32,258.92,0.0,0.0,0.0,-48.3967621257945,-4.9513908955313
153,1500206,Acará (PA),5036,5244,5809,5963,5084,4662,4521,4384,3956,3172,2863,2317,1830,1381,1062,789,515,278,97,46,14,57385,4344,13.21,3.46,51.76,48.24,9.63014418108195,14.406248411636142,0.11012656083221795,75.8145129864629,0.038967859986784814,0.038967859986784814,82.69,84.1,53569.0,12621.0,0.53,55.74,15.21,52.16,11.0,20.1,10.1,49.75,15.21,8.05,63.18,1.92,199.34,70.44,6.03,6.06,299.05,13.709231619679379,0.0,0.0,-48.2004564317501,-1.9634365
154,1500305,Afuá (PA),4092,4208,4111,3954,3674,3218,2661,2453,2189,1797,1414,1148,915,732,481,345,188,112,53,12,8,37765,8338,4.53,4.17,52.19,47.81,14.485077986388795,6.7976590842888545,0.06355427270079178,78.62193152027116,0.03177713635039589,0.07679067920031775,62.96,77.98,35042.0,9478.0,0.66,44.64,16.72,48.94,7.82,24.79,5.13,41.05,16.72,13.11,78.76,5.31,163.98,71.43,6.59,16.78,293.64,17.437420449724225,4397.0,45.86299512,-50.3914275892332,-0.159171693779797
155,1500347,Água Azul do Norte (PA),1624,1687,1572,1471,1549,1439,1561,1559,1473,1066,784,651,593,416,293,166,114,49,11,2,0,18080,7114,2.54,3.2,53.63,46.37,24.621086403363204,10.117269609470075,0.07191060958070583,64.21617435557032,0.9735590220157097,0.9734513274336283,95.84,88.32,25057.0,4876.0,0.49,46.66,31.55,54.82,7.03,19.78,6.92,21.01,31.55,14.27,38.54,0.76,266.02,72.83,7.48,17.24,162.49,0.0,0.0,0.0,-50.4852745072531,-6.80494886740538
156,1500404,Alenquer (PA),6683,7325,6984,7175,6082,5338,5442,4844,4443,3494,2829,2310,1971,1658,1131,763,511,245,118,25,6,69377,23645,2.93,3.87,51.44,48.56,15.035458948339484,7.790878690036901,0.059098247232472326,77.06267297047971,0.05189114391143912,0.05189039595254912,82.38,89.18,52626.0,27722.0,0.58,49.59,19.44,49.58,11.03,27.1,5.15,41.66,19.44,7.2,61.79,2.11,215.33,71.72,7.82,9.18,236.47,0.0,0.0,0.0,-54.7408623501896,-1.951397505
157,1500503,Almeirim (PA),3418,3433,3495,3385,2990,2774,2537,2401,2252,1834,1516,1234,1061,742,496,318,216,99,50,16,13,34280,72955,0.47,3.75,51.48,48.52,14.88331388564761,7.535005834305718,0.03500583430571762,74.38156359393233,3.165110851808635,3.1738623103850645,88.25,87.42,33614.0,19965.0,0.65,55.34,38.84,35.34,10.12,34.63,9.85,34.14,38.84,10.49,51.2,3.5,484.16,73.55,8.61,7.29,345.59,8.615420780441937,1520.0,73.95621986,-52.5768350868127,-1.52733880276478
158,1500602,Altamira (PA),10426,11332,10462,10759,11043,10953,10437,10443,9635,7619,6354,5180,4036,2926,1992,1257,811,389,172,45,8,126279,159533,0.79,3.05,49.84,50.16,23.058648378973377,10.246440393417698,0.26053627710289995,61.727300083941785,4.7070748665642475,4.905011918054466,93.36,90.34,99075.0,84092.0,0.56,56.96,36.26,18.63,16.65,43.02,6.86,25.51,36.26,6.96,40.91,0.81,492.05,73.64,8.65,4.96,130.82,7.225415534020875,8253.0,30.31094334,-52.2143763052078,-3.20565951
159,1500701,Anajás (PA),3294,3202,3212,3308,2772,2361,1965,1868,1522,1223,931,643,567,401,316,209,113,55,37,7,5,28011,6914,4.05,4.38,51.79,48.21,13.923101638641963,5.747741958516297,0.028560208489521975,80.28274606404626,0.017850130305951235,0.017850130305951235,46.07,77.42,24759.0,9494.0,0.62,46.69,15.03,41.76,14.56,25.68,8.63,46.82,15.03,6.89,75.33,5.54,186.88,71.43,6.6,4.59,415.2,0.0,0.0,0.0,-49.945001040544,-0.984451394008702
160,1500800,Ananindeua (PA),28889,32493,33616,36682,39527,39364,38751,41560,41257,34246,30238,24230,20308,15336,10161,6048,3348,1749,693,202,80,478778,191,2512.2,3.08,47.48,52.52,23.41576103416513,11.190505531964668,0.19821916062853648,65.08940749389572,0.10610677934593943,0.10610345504597121,99.38,97.2,471980.0,470819.0,0.52,57.3,51.75,1.89,24.22,49.59,7.24,25.97,51.75,11.5,43.37,3.59,564.76,74.24,9.65,6.0,85.39,53.51390099232564,288611.0,57.8609204,-48.372066654168,-1.36871356826946
161,1500859,Anapu (PA),3104,3226,3205,3178,2865,2620,2452,2472,2129,1664,1334,1154,860,704,407,241,135,67,29,4,0,31850,11895,2.68,3.38,52.14,47.86,19.40973312401884,10.979591836734693,0.6750392464678179,65.98116169544741,2.9544740973312402,2.963893249607535,75.57,85.05,20543.0,9833.0,0.58,61.28,17.73,48.72,9.33,26.13,5.62,25.64,17.73,3.51,50.41,1.7,266.28,72.25,7.63,11.18,305.63,0.0,0.0,0.0,-51.2016217984581,-3.47610463506868
162,1500909,Augusto Corrêa (PA),3725,4277,4783,4602,3868,3542,3293,3261,2830,2296,1944,1664,1406,1143,794,532,316,194,73,21,9,44573,1100,40.53,3.6,51.15,48.85,11.26691046149014,3.208220223004958,0.017948085163664102,85.48897314517757,0.017948085163664102,0.044870212909160254,81.73,82.54,40497.0,18240.0,0.56,42.48,10.94,66.3,6.03,19.02,1.89,53.06,10.94,4.54,55.27,2.93,159.05,71.3,7.46,13.52,305.65,0.0,0.0,0.0,-46.6416457856711,-1.02292101
163,1500958,Aurora do Pará (PA),2053,2174,2482,2300,2048,1883,1752,1743,1517,1386,1105,958,707,618,419,292,200,77,43,12,5,23632,1812,13.04,3.56,50.81,49.19,12.639858669134348,11.007823672919995,0.07571296374190292,76.07049718179523,0.2061075124085135,0.24817027004290398,75.05,81.75,26546.0,8168.0,0.56,37.21,16.27,56.32,5.56,21.46,10.03,29.61,16.27,8.36,53.46,0.92,184.39,71.38,6.55,7.47,203.33,0.0,0.0,0.0,-47.5561746036128,-2.12937601319444
164,1501006,Aveiro (PA),1927,1944,1766,1764,1519,1447,1234,1217,1077,875,777,766,634,518,330,237,145,75,28,9,1,18290,17074,1.07,3.91,52.41,47.59,9.404045926735922,5.489338436303991,0.09841443411700383,68.78622197922361,16.221979223619464,17.539639147074904,77.8,90.96,15849.0,3179.0,0.6,50.29,13.19,68.64,5.12,20.56,1.31,21.62,13.19,6.11,62.65,8.1,148.71,69.87,7.82,2.13,303.3,0.0,0.0,0.0,-55.3307343898178,-3.60559525928393
165,1501105,Bagre (PA),4034,4441,3717,3880,3202,2655,2233,1918,1459,1202,860,673,561,401,264,167,87,67,28,22,21,34711,4397,7.89,5.62,50.96,49.04,9.98683055311677,9.325222626363978,0.01881349554747272,80.66599774238054,0.0031355825912454537,0.0031355825912454537,36.53,82.55,23864.0,10661.0,0.48,50.51,9.7,47.95,10.58,26.09,6.99,47.23,9.7,13.09,81.17,4.8,159.41,71.59,5.57,1.94,249.47,7.348951911220715,0.0,0.0,-50.2219869206135,-1.88980806036172
166,1501204,Baião (PA),3690,4422,4052,4829,5398,4465,4232,4293,3859,2813,2775,1894,1593,1205,966,539,370,134,82,19,11,51641,3760,13.73,4.22,50.19,49.81,11.53153502062315,22.875234794058986,0.023237350167502564,65.47123409693847,0.0987587382118859,0.1006951840591778,89.79,91.96,36882.0,18555.0,0.53,53.08,18.36,59.8,7.18,22.66,3.34,34.99,18.36,4.14,63.52,5.29,226.99,71.18,8.19,11.77,170.82,0.0,0.0,0.0,-49.6727533733253,-2.79196186136136
167,1501253,Bannach (PA),338,335,354,360,335,300,302,316,310,257,215,174,164,105,82,29,29,21,3,2,0,4031,2957,1.36,3.02,53.68,46.32,18.01041925080625,10.270404366162243,0.19846192011907715,66.16224261969734,5.358471843215083,5.358471843215083,93.63,87.22,3431.0,1282.0,0.62,52.78,29.63,55.68,5.77,25.8,1.14,36.67,29.63,6.09,32.46,0.62,416.31,72.06,7.8,9.01,182.37,0.0,0.0,0.0,-50.4060471215195,-7.3510721924244
168,1501303,Barcarena (PA),10125,10679,11015,11496,11262,10965,10809,10789,9636,7683,6154,4981,3971,2810,1834,1115,727,351,141,68,39,126650,1310,96.65,3.33,50.05,49.95,17.761038468826985,8.284378750552714,0.1847640704945992,73.54557513738867,0.22424357273703494,0.2305566521910778,95.68,93.85,99859.0,36297.0,0.55,54.18,45.52,15.61,15.03,35.19,12.11,29.07,45.52,13.63,51.4,1.85,437.43,73.04,8.93,1.93,183.97,5.196934817571189,2573.0,33.57009404,-48.6270728925156,-1.505767005
169,1501402,Belém (PA),70625,80003,84509,93564,104095,100056,97088,103417,107814,94224,87196,75408,65517,50417,36700,24225,14989,8444,3686,1119,307,1303389,1059,1230.23,3.08,46.86,53.14,26.276776377018756,11.462464543047444,0.2530419897785767,61.848971220885396,0.1587458692698227,0.1630347636149372,99.18,97.05,1393399.0,1381475.0,0.61,56.15,54.58,1.62,23.09,54.16,5.48,26.32,54.58,10.74,43.19,1.78,853.82,74.33,9.64,4.57,92.44,55.49085881843586,758524.0,88.6406225,-48.4878256874876,-1.459845
170,1501451,Belterra (PA),1549,1633,1619,1833,1541,1272,1142,1248,1253,1089,859,767,684,578,415,275,185,104,40,10,3,18099,4398,4.11,3.37,50.63,49.37,13.227250124316262,5.177081606718604,0.2873086910879054,77.4186419139179,3.8897176639593347,9.917675009669043,93.73,91.14,16318.0,6852.0,0.58,45.78,23.69,48.68,7.1,31.57,4.22,24.67,23.69,12.66,50.75,0.9,241.57,71.51,9.05,6.65,266.57,0.0,0.0,0.0,-54.9426747393262,-2.64902016946856
171,1501501,Benevides (PA),4550,5183,4997,5352,5289,5199,5172,5325,5156,4133,3571,2819,2281,1830,1131,739,452,239,94,36,19,63567,188,338.44,3.09,49.16,50.84,18.940645303380684,9.844730756524612,0.18720405241713467,70.92044614343921,0.10697374423836267,0.10697374423836267,98.69,94.44,51651.0,28912.0,0.48,54.4,43.39,7.6,21.87,44.1,8.24,27.4,43.39,14.09,50.46,5.63,385.83,72.9,9.42,1.01,204.01,42.73288855942673,765.0,37.35661652,-48.2418364505703,-1.361437515
172,1501576,Bom Jesus do Tocantins (PA),1349,1360,1319,1391,1462,1652,1376,1792,1449,994,814,879,964,437,332,202,107,71,36,13,6,18005,2817,6.39,3.52,55.37,44.63,22.010552624271035,7.297972785337406,0.09997222993612885,64.60983060261039,5.981671757845043,6.2760344348792,93.34,87.91,15298.0,8158.0,0.52,52.95,22.52,45.26,8.04,26.55,3.6,23.4,22.52,6.47,42.46,1.1,337.28,71.61,7.35,19.06,161.05,0.0,0.0,0.0,-48.5990399590615,-5.04736270432029
173,1501600,Bonito (PA),931,942,1040,1193,1063,1024,1013,1080,966,732,669,556,437,377,239,171,95,58,20,13,3,12622,587,21.5,2.99,51.32,48.68,16.439549992077325,5.387418792584377,0.07130407225479321,78.08588179369355,0.01584534938995405,0.01584534938995405,81.8,79.83,13630.0,3827.0,0.5,53.36,25.42,64.59,4.6,17.73,8.65,42.97,25.42,7.0,42.79,1.49,218.05,71.22,7.52,2.01,149.63,0.0,0.0,0.0,-47.3058918168639,-1.36747435687254
174,1501709,Bragança (PA),9368,10144,11055,11720,10401,9904,9668,9874,8900,7375,6122,4998,4216,3423,2411,1693,968,531,230,53,28,123082,2125,57.93,3.31,50.03,49.97,13.349853753656157,4.39795255118622,0.04631134221644459,82.12950926226844,0.07637309067273318,0.08124664857574626,90,88.14,113227.0,72621.0,0.58,49.66,22.58,37.38,18.38,29.85,4.64,43.34,22.58,5.89,48.56,1.97,311.97,70.27,9.31,6.3,186.03,4.853169449108246,0.0,0.0,-46.765754213664,-1.05352395620564
175,1501725,Brasil Novo (PA),1861,2157,2061,2218,2132,1881,1985,1944,1887,1505,1310,1138,920,665,448,274,188,91,37,15,1,24718,6363,3.88,3.42,51.12,48.88,24.258607436177527,11.530525549217138,0.08496176720475786,62.5359064611401,1.5899987862604688,1.5980257302370742,88.24,88.86,15690.0,6899.0,0.67,51.09,18.32,53.17,7.14,25.15,3.73,32.35,18.32,4.06,35.9,1.7,408.55,73.55,8.68,7.56,193.33,0.0,0.0,0.0,-52.5434411922788,-3.29780370400837
176,1501758,Brejo Grande do Araguaia (PA),550,559,645,641,497,479,440,512,493,425,347,308,272,221,159,118,60,35,17,2,3,6783,1288,5.26,3.18,50.7,49.3,16.80672268907563,11.528822055137844,0.07371369600471768,70.38183694530443,1.2089046144773699,1.2089046144773699,82.79,86.14,7317.0,4308.0,0.57,49.61,21.66,39.79,8.35,28.93,3.5,24.11,21.66,4.09,36.62,1.64,310.08,69.57,8.38,27.55,290.11,0.0,0.0,0.0,-48.4057604223874,-5.70729615383609
177,1501782,Breu Branco (PA),3988,4280,4324,4456,4015,3398,3371,3424,3119,2438,2272,1819,1540,1268,854,557,339,143,75,22,10,45712,3942,11.6,3.37,50.53,49.47,17.034914245712287,11.493699684984248,0.10719285964298216,71.15418270913545,0.21001050052502626,0.23407420371018553,88.65,84.9,52493.0,29308.0,0.53,47.47,31.04,41.71,13.0,22.85,8.46,33.32,31.04,13.49,53.72,1.74,252.31,71.87,8.03,3.01,153.47,29.839257414534753,0.0,0.0,-49.5698796832857,-3.77813541287867
178,1501808,Breves (PA),12219,11581,11512,11594,11000,8842,7520,6886,6250,4585,3900,2863,2614,1963,1491,949,593,316,147,78,65,106968,9567,11.18,4.38,51.68,48.32,14.856779597636677,7.073143369979808,0.11031336474459652,77.86253832921996,0.09722533841896643,0.7693889761423978,63.63,81.1,92860.0,46560.0,0.58,48.67,22.68,35.19,13.08,31.06,11.25,38.63,22.68,8.83,74.51,3.14,209.14,71.65,6.54,3.75,284.46,3.8141587912398847,0.0,0.0,-50.4808947990195,-1.6907365
179,1501907,Bujaru (PA),2116,2190,2349,2551,2064,1968,1725,1731,1628,1370,1191,961,738,609,432,352,226,116,43,18,5,24383,995,24.51,3.43,50.66,49.34,10.44170118525202,12.549727268998891,0.07792314317352254,76.8240167329697,0.10663166960587295,0.10663166960587295,65.7,88.52,25695.0,8099.0,0.52,50.17,13.25,68.03,6.02,16.93,3.91,50.54,13.25,3.53,63.07,2.15,174.18,71.76,7.65,16.84,441.33,0.0,0.0,0.0,-48.035875014396,-1.51399146230061
180,1501956,Cachoeira do Piriá (PA),1804,1807,2006,2203,1757,1513,1458,1538,1312,962,891,743,607,397,290,183,100,31,21,7,0,19630,2420,8.11,3.48,52.73,47.27,13.815588385124808,12.582781456953644,0.025471217524197655,73.41823739174733,0.15792154865002547,0.17320427916454406,59.92,79.78,26484.0,5532.0,0.58,43.44,5.92,66.23,6.26,15.77,2.73,39.94,5.92,5.08,58.42,5.91,130.4,71.73,6.67,1.2,272.75,0.0,0.0,0.0,-46.5473914166255,-1.75289700493124
181,1502004,Cachoeira do Arari (PA),1962,2193,2226,2156,2152,2098,2018,1813,1588,1280,1114,910,809,601,389,312,192,97,47,10,14,23981,3100,7.74,3.66,50.57,49.43,8.857011801009133,14.628247362495308,0.058379550477461316,76.38964179975815,0.06671948625995579,0.07088945415120304,88.48,91.63,20443.0,7356.0,0.6,45.44,20.09,58.72,7.73,22.18,2.11,28.7,20.09,11.3,60.19,2.67,209.79,71.65,7.07,7.69,364.75,0.0,0.0,0.0,-48.9606675773871,-1.00878626563928
182,1502103,Cametá (PA),11315,11501,12742,13524,13144,11709,10794,10184,8729,7124,5792,4427,3712,3308,2373,1767,1074,601,211,103,50,134184,3081,43.55,4.02,51.3,48.7,17.26075583345133,7.87357563923895,0.04098879887914266,74.73152336734161,0.0931563610889606,0.09315566684552555,77.36,91.67,120896.0,52838.0,0.58,53.22,19.08,54.53,10.6,22.5,4.14,42.58,19.08,6.87,71.59,2.72,226.99,70.21,8.58,6.69,261.12,6.580605736546614,5253.0,24.34373183,-49.497830168997,-2.24683848
183,1502152,Canaã dos Carajás (PA),7104,7156,6677,6524,7165,7592,7889,7819,6115,4087,2907,2128,1488,978,631,455,231,88,35,7,3,77079,3147,24.49,3.15,51.1,48.9,21.658298628679667,9.749737282528315,0.2646635270307088,68.1716161340962,0.1556844276651228,0.1556844276651228,98.91,94.85,26716.0,20727.0,0.55,58.89,46.74,18.56,12.81,35.43,4.8,21.39,46.74,10.85,36.0,0.73,517.33,73.06,9.35,1.82,127.99,0.0,0.0,0.0,-49.8489584319153,-6.5321966156294
184,1502202,Capanema (PA),4609,5119,5435,5829,5854,5795,5638,5904,5492,4646,3902,3375,2677,2244,1533,1060,666,396,165,40,15,70394,621,113.27,3.05,48.8,51.2,23.4238713526721,5.392505043043442,0.21166576696877576,70.82705912435719,0.14489871295849077,0.1505810154274512,93.53,90.06,63639.0,50732.0,0.53,52.72,30.68,20.29,24.1,37.38,6.7,33.06,30.68,9.39,32.96,1.54,356.27,72.62,9.6,3.51,115.79,1.0911074740861975,0.0,0.0,-47.1751261231344,-1.192441995
185,1502301,Capitão Poço (PA),4301,4366,4851,5204,4897,4908,4685,4493,4058,3369,2949,2506,1890,1379,1114,717,464,224,97,26,8,56332,2901,19.42,3.1,50.74,49.26,14.605787098486859,5.413680205291567,0.07609946022475887,79.78232014865941,0.12211308733740378,0.1256503734116731,89.99,81.77,51893.0,21441.0,0.62,54.57,12.35,55.78,10.48,23.06,2.88,35.99,12.35,5.75,44.76,3.07,283.1,69.8,7.93,9.06,168.12,0.0,0.0,0.0,-47.0628253774009,-1.74618729323752
186,1502400,Castanhal (PA),13300,14012,14851,16069,16925,16102,16117,16434,15397,12507,10855,8671,6989,5345,3680,2363,1483,723,305,99,29,192262,1029,186.79,3.01,48.12,51.88,22.304579406196034,8.545554792667957,0.37398830701371116,68.70097580259244,0.07490169152986706,0.07490013315579228,98.51,94.12,173149.0,153378.0,0.54,53.1,47.43,8.51,23.92,39.57,11.29,27.67,47.43,10.03,41.74,0.65,467.32,72.97,9.91,2.14,78.89,10.068792048002909,0.0,0.0,-47.9266431419442,-1.29575680504525
187,1502509,Chaves (PA),2316,2290,2318,2239,1905,1636,1488,1381,1199,979,778,629,508,412,298,181,114,46,28,7,5,20757,12535,1.66,4.36,53.56,46.44,12.622247916365565,12.969118851471793,0.1927060750590162,74.10030351206822,0.11562364503540976,0.12525894878836055,50.61,80.86,21005.0,2510.0,0.67,47.25,8.34,71.98,3.69,17.57,0.3,27.8,8.34,7.19,72.7,3.35,198.83,71.15,4.95,12.99,282.63,0.0,0.0,0.0,-49.9893186050714,-0.162437290121912
188,1502608,Colares (PA),932,1072,1134,1174,947,936,984,955,889,729,733,616,511,427,345,228,133,79,29,12,3,12868,384,33.5,3.22,50.09,49.91,16.824681380167856,6.481193658688218,0.015542430836182779,76.58532794529064,0.09325458501709667,0.42741684799502644,93.51,92.21,11381.0,3661.0,0.56,45.3,16.03,49.55,12.81,28.83,1.22,41.6,16.03,5.36,52.4,3.69,231.98,70.8,9.5,1.18,208.88,0.0,0.0,0.0,-48.2887284319494,-0.932091243957739
189,1502707,Conceição do Araguaia (PA),3226,3359,3576,3678,3574,3340,2911,3112,3203,3015,2666,2387,1966,1689,1205,828,499,243,106,23,11,44617,5829,7.65,2.94,50.41,49.59,21.520632999349964,13.431062694730237,0.3182928742743147,64.50137852195549,0.2286329096900007,0.23981890310868056,96.2,89.5,45557.0,32464.0,0.54,53.27,31.64,26.24,14.84,38.34,6.32,28.36,31.64,7.45,30.76,1.14,405.29,71.2,9.31,7.28,104.98,0.0,0.0,0.0,-49.2645008124957,-8.26486353
190,1502756,Concórdia do Pará (PA),2306,2507,2550,2787,2354,2144,2146,2133,1786,1459,1221,967,724,600,478,330,208,106,48,17,10,26881,701,38.37,3.37,50.41,49.59,13.611844797440572,17.090138015698823,0.19344518433094007,68.9818087124735,0.1227632900561735,0.1227632900561735,79.28,86.39,28216.0,15088.0,0.5,51.96,23.52,42.25,11.36,29.52,8.26,38.82,23.52,5.55,55.67,5.62,260.68,69.45,7.89,7.98,236.46,0.0,0.0,0.0,-47.9498869390047,-1.98452146277275
191,1502764,Cumaru do Norte (PA),1444,1337,1319,1204,1318,1248,1111,1088,972,782,684,580,379,267,152,72,42,29,7,1,0,14036,17085,0.82,3.55,54.9,45.1,16.863268788485794,11.1432598857482,0.08902737591809481,53.75769715854292,18.146746791304995,17.718723282986605,74.29,83.75,10466.0,2711.0,0.64,58.91,38.94,60.33,4.68,15.59,3.57,24.78,38.94,8.54,46.25,1.99,417.06,72.71,6.97,5.26,166.18,0.0,0.0,0.0,-50.7715783775131,-7.81110653689927
192,1502772,Curionópolis (PA),1766,1798,1802,1820,1681,1594,1547,1478,1284,1081,835,845,810,630,421,270,174,79,23,8,4,19950,2369,8.42,3.11,51.11,48.89,20.145363408521302,10.9874686716792,0.07518796992481204,68.63659147869674,0.15538847117794488,0.15538847117794488,93.67,87.15,18288.0,12530.0,0.54,44.05,26.44,21.43,13.08,39.16,3.29,26.53,26.44,11.63,40.55,2.24,319.35,73.53,9.43,11.01,206.01,0.0,0.0,0.0,-49.6022142249504,-6.09681995220666
193,1502806,Curralinho (PA),3586,3593,3755,3882,3534,2909,2572,2299,1957,1491,1180,845,685,554,401,315,166,93,30,23,33,33903,3617,9.37,4.14,52.69,47.31,14.52673804678052,6.244285166504439,0.03834468926053742,79.15228740819397,0.03834468926053742,0.03834468926053742,58.76,83.14,28549.0,10930.0,0.57,49.53,17.71,54.18,7.38,23.73,7.88,51.04,17.71,7.06,78.61,5.79,188.88,71.15,7.05,12.53,268.35,0.0,0.0,0.0,-49.7915228470854,-1.80942341966693
194,1502855,Curuá (PA),1312,1304,1417,1557,1217,1107,1049,1059,981,684,572,558,413,346,209,162,104,43,14,7,2,14117,1431,9.86,3.61,51.98,48.02,12.332648579726571,5.759013954806262,0.007083658000991712,81.83041722745625,0.07083658000991712,0.24792803003470992,86.68,91.96,12254.0,5781.0,0.6,50.28,21.11,50.88,7.42,28.12,3.56,25.92,21.11,3.82,64.36,6.98,180.94,71.8,8.94,5.62,277.06,0.0,0.0,0.0,-55.1196786087308,-1.88992870430549
195,1502905,Curuçá (PA),2649,3134,3358,3975,3288,3110,3084,3300,3014,2594,2326,1830,1663,1379,927,727,500,260,100,37,7,40342,676,59.65,3.4,50.28,49.72,17.425233871358635,5.232417236197954,0.07997673404100625,77.20663079831321,0.055741360089186176,0.055741360089186176,95.16,93.15,34294.0,12174.0,0.56,41.56,19.13,49.76,13.22,23.63,2.36,43.57,19.13,8.15,47.34,4.2,233.96,70.48,8.16,4.96,320.98,0.0,0.0,0.0,-47.8512650859352,-0.73249551
196,1502939,Dom Eliseu (PA),4555,5468,5367,5680,5845,4184,4922,5144,4819,3079,2534,1986,1712,1303,916,494,271,133,55,15,2,58484,5269,11.1,3.8,49.43,50.57,22.529238766158265,10.507147253949798,0.140209288010396,66.74304083168046,0.08036386020108063,0.08036386020108063,95.02,88.97,51319.0,32516.0,0.52,56.28,39.94,25.89,17.15,35.29,8.57,20.63,39.94,13.82,42.32,1.14,348.04,70.8,8.46,10.4,76.02,4.459106728538283,0.0,0.0,-47.5559148859934,-4.29077772
197,1502954,Eldorado do Carajás (PA),2466,2545,2705,2823,2289,2020,1998,2146,1919,1520,1444,1276,1039,754,565,347,196,98,29,7,6,28192,2957,9.53,3.16,51.23,48.77,19.601305334846767,12.092082860385926,0.07803632236095345,68.09733257661748,0.13124290578887626,0.13124290578887626,90.99,85.92,31786.0,16578.0,0.57,50.47,20.23,42.06,13.53,24.07,10.55,22.35,20.23,5.75,40.1,1.54,281.12,70.42,7.99,7.24,161.02,0.0,0.0,0.0,-49.3739519421522,-6.10352516107139
198,1503002,Faro (PA),820,764,833,984,794,726,603,622,549,463,391,315,262,234,141,91,73,36,18,7,2,8728,11772,0.74,4.15,51.36,48.64,12.935380384967921,2.3029330889092576,0.011457378551787351,83.79926672777268,0.9509624197983501,0.9509624197983501,88.7,92.74,8177.0,6128.0,0.56,43.04,26.68,44.83,7.98,37.2,1.52,23.45,26.68,2.97,58.01,4.65,180.47,70.35,8.1,18.81,446.91,0.0,0.0,0.0,-56.745753017307,-2.17297524194977
199,1503044,Floresta do Araguaia (PA),1466,1468,1527,1604,1465,1475,1390,1350,1365,1107,955,831,611,490,369,194,140,57,27,7,0,17898,3444,5.2,2.99,53.07,46.93,21.320817968488097,10.593362386858866,0.12850597832160018,67.79528438931725,0.16202927701419154,0.16761649346295676,89.66,87.04,17768.0,8714.0,0.62,50.11,21.16,49.49,10.13,25.86,3.63,33.87,21.16,13.07,36.03,2.43,283.57,72.52,7.98,15.31,182.0,0.0,0.0,0.0,-49.6975784122373,-7.55870087237008
200,1503077,Garrafão do Norte (PA),1973,2094,2271,2601,2142,2018,1990,1838,1684,1430,1229,992,735,608,441,299,203,108,38,5,4,24703,1608,15.36,3.2,51.39,48.61,13.455855564101526,6.165243087884063,0.11739464842326842,80.22912196899162,0.03238473059952232,0.036432821924462615,84.29,78.13,25034.0,8607.0,0.55,56.22,10.71,59.0,7.05,24.68,4.21,43.98,10.71,2.9,52.33,5.24,229.91,70.75,7.0,5.1,296.86,0.0,0.0,0.0,-47.0450460172973,-1.93169704310669
201,1503093,Goianésia do Pará (PA),2218,2284,2383,2483,2123,1816,1997,2126,2090,1662,1382,1135,884,742,457,294,160,85,32,5,4,26280,7024,3.74,3.17,51.3,48.7,19.327794848450363,10.84936079814878,0.05690224194833276,69.34107203823831,0.42487007321421794,0.4400273120400576,91.86,84.44,30436.0,21082.0,0.54,48.63,29.68,24.84,27.75,29.91,7.6,23.15,29.68,8.88,43.21,0.47,303.9,69.58,7.3,18.0,113.28,0.0,0.0,0.0,-49.1010449237426,-3.842468
202,1503101,Gurupá (PA),3363,3313,3389,3659,3282,2747,2282,2109,1786,1470,1127,884,752,541,387,323,205,111,38,12,6,31788,8570,3.71,4.3,52.56,47.44,16.019631284213176,6.266909960359906,0.025168313093814888,77.52784244636003,0.1604479959730699,0.19190838734033852,59.86,82.03,29062.0,9580.0,0.56,48.36,8.01,52.57,6.11,22.97,10.34,51.21,8.01,5.17,72.57,3.06,191.06,71.59,6.23,3.51,406.36,0.0,0.0,0.0,-51.6436957233941,-1.404918
203,1503200,Igarapé-Açu (PA),2466,2736,2855,3048,2950,2934,2784,2788,2611,2224,2008,1666,1490,1138,863,557,393,172,78,20,16,35797,786,45.54,3.09,49.63,50.37,19.005447688224614,5.88909065511943,0.2933370582483587,74.7422824416818,0.06984215672579969,0.06983825460234097,88.1,87.75,35887.0,21207.0,0.56,49.79,19.51,43.33,15.16,26.6,5.65,34.12,19.51,12.23,46.38,3.96,293.71,69.55,8.47,3.21,202.98,0.0,0.0,0.0,-47.6223754920271,-1.124322
204,1503309,Igarapé-Miri (PA),5045,5778,6255,6355,5592,5663,5342,5028,4584,3674,2951,2349,1939,1522,1145,734,444,243,112,42,34,64831,1997,32.47,3.82,51.32,48.68,17.7492249078373,17.06282488315775,0.03701932717372861,65.11545402662307,0.0354768552081566,0.0354768552081566,72.91,84.59,58077.0,26205.0,0.53,51.98,18.62,42.6,14.68,25.54,8.66,46.36,18.62,8.72,68.73,3.06,196.34,71.18,7.27,10.15,239.36,6.008083320379294,0.0,0.0,-48.9622994689466,-1.983116
205,1503408,Inhangapi (PA),846,857,905,915,870,831,841,789,680,607,499,441,393,316,198,163,86,47,26,12,3,10325,473,21.85,3.21,50.64,49.36,9.975786924939467,15.196125907990316,0.09685230024213075,74.6634382566586,0.06779661016949153,0.06779661016949153,79.33,87.91,10037.0,2771.0,0.52,45.61,29.98,45.44,6.7,25.35,8.76,34.06,29.98,7.13,53.99,2.02,245.7,69.88,8.27,1.78,241.38,0.0,0.0,0.0,-47.9133927465885,-1.42658198091031
206,1503457,Ipixuna do Pará (PA),2933,3021,3059,3095,2580,2297,2299,2222,1955,1611,1362,1100,919,766,487,323,164,88,43,4,1,30329,5216,5.82,3.45,51.56,48.44,15.654983678987108,10.062976029542682,0.08572653236176596,74.08091265785221,0.11540110125622341,0.12199544989943617,80.58,82.45,51309.0,12227.0,0.57,37.79,24.34,45.74,9.91,29.86,4.16,26.19,24.34,12.17,57.74,1.32,188.48,70.44,6.21,8.84,134.25,1.368808281290102,0.0,0.0,-47.4997175887983,-2.5575285
207,1503507,Irituia (PA),2328,2434,2883,2923,2440,2319,2310,2259,2182,1926,1590,1410,1078,975,744,572,320,149,82,22,9,30955,1385,22.35,3.24,51.4,48.6,13.646055437100213,9.766104542223946,0.10984040834787104,76.43923240938166,0.03876720294630742,0.03876595057341302,79.42,85.76,31364.0,6524.0,0.58,57.28,16.22,57.91,7.79,21.92,2.6,36.16,16.22,4.01,53.84,3.02,224.25,70.75,8.19,9.75,256.44,0.0,0.0,0.0,-47.4407556128483,-1.771474995
208,1503606,Itaituba (PA),10869,10892,10060,10785,11847,11503,10155,9865,8500,6672,5811,5019,4099,2957,1959,1181,652,331,118,28,11,123312,62042,1.99,3.36,50.51,49.49,19.349449765227757,10.606515233839641,0.10947928408657782,68.28425687894834,1.6502988378976735,2.20575117180531,95.39,91.81,97493.0,70682.0,0.57,52.17,32.98,15.36,18.4,35.76,6.7,30.88,32.98,7.72,49.1,1.2,440.6,72.97,8.6,5.73,186.15,2.831346147796269,0.0,0.0,-55.9900488572777,-4.26372948
209,1503705,Itupiranga (PA),4004,4356,4804,4902,4378,3712,3662,4123,3660,2904,2406,1883,1595,1260,953,585,320,155,68,21,3,49752,7880,6.31,3.6,52.35,47.65,18.31410539856092,12.60200184909756,0.12461309643445753,68.0709088716485,0.8883707842585522,0.9024400048237328,91.29,84.77,51220.0,20490.0,0.62,46.14,18.55,49.34,12.5,24.32,4.23,32.16,18.55,9.05,44.87,1.68,234.25,69.73,7.08,2.91,190.86,2.0153824241561034,0.0,0.0,-49.3244258612861,-5.12883702636091
210,1503754,Jacareacanga (PA),3320,3099,2622,2686,2318,1895,1538,1475,1227,1022,828,686,470,367,232,132,65,39,15,4,2,24042,53305,0.45,4.69,52.24,47.76,7.711504866483654,5.049496714083687,0.07070959154812412,29.702187837950255,57.466100989934276,59.129856085184265,51.7,88.79,14103.0,4930.0,0.69,47.87,11.87,16.83,6.79,39.43,0.99,28.84,11.87,6.81,76.4,2.76,289.16,73.0,5.91,11.7,619.09,0.0,0.0,0.0,-57.7663398583794,-6.22355173138645
211,1503804,Jacundá (PA),2893,3148,3447,3528,2828,2662,2712,3008,2989,2375,1976,1664,1420,1109,777,552,346,171,72,23,7,37707,2008,18.78,2.99,49.07,50.93,20.737852747719074,11.903246339910885,0.1644387863356673,67.0830681094844,0.11139401654996818,0.12464529132521812,95.48,85.48,51360.0,45683.0,0.59,53.11,33.53,22.42,19.62,32.55,12.03,25.12,33.53,15.77,40.73,1.77,399.45,70.14,8.09,7.42,202.36,8.175079421108364,0.0,0.0,-49.1127815625675,-4.448405475
212,1503903,Juruti (PA),5150,5298,5524,5514,4522,4034,3690,3811,3224,2497,1914,1556,1297,1039,729,534,263,177,82,20,6,50881,8305,6.13,4.11,51.4,48.6,12.265875277608536,4.988109510426289,0.13561054224563196,82.39028320984258,0.22012145987696782,0.25156738271653467,83.79,93.76,47086.0,15852.0,0.59,49.96,30.06,39.82,9.65,28.82,3.72,33.19,30.06,8.86,68.71,2.8,241.39,70.35,9.03,0.32,158.97,0.0,0.0,0.0,-56.0949976884001,-2.155252995
213,1504000,Limoeiro do Ajuru (PA),2816,2671,2804,3062,3230,2567,2562,2092,1952,1437,1246,931,681,585,357,248,177,85,38,17,11,29569,1490,19.84,4.11,51.71,48.29,17.2883763400859,3.875680611451182,0.006763840508640807,78.78521424464812,0.043964963306165235,0.043964963306165235,64.2,89.35,25021.0,6197.0,0.58,55.42,19.51,69.93,3.13,16.58,2.69,47.6,19.51,5.33,75.51,5.49,172.12,70.21,7.79,12.51,250.72,0.0,0.0,0.0,-49.3815339012019,-1.8919485
214,1504059,Mãe do Rio (PA),2576,2902,2878,3271,3136,2898,2786,2636,2504,2105,1722,1321,1044,928,675,478,272,129,72,17,3,34353,469,73.19,3.47,49.16,50.84,19.215766185374942,8.46821145784816,0.1455519329296693,72.13262692128552,0.03784350256171402,0.03784240095479288,95.07,87.47,27904.0,23052.0,0.58,49.44,24.88,23.45,20.56,33.63,9.31,35.64,24.88,7.17,42.03,0.81,367.01,70.75,7.71,10.86,281.98,0.0,0.0,0.0,-47.5522901794773,-2.04770744079076
215,1504109,Magalhães Barata (PA),549,644,765,700,560,565,564,600,588,509,434,388,374,314,232,150,105,52,14,4,4,8115,324,25.05,3.24,51.15,48.85,16.192236598890943,4.670363524337646,0.0,79.12507701786815,0.012322858903265557,0.012322858903265557,91.68,91.9,8115.0,3795.0,0.54,40.17,14.45,38.56,12.43,34.06,3.36,34.2,14.45,4.9,48.03,2.06,208.43,73.06,8.66,1.99,216.32,0.0,0.0,0.0,-47.5991818964912,-0.795850156021161
216,1504208,Marabá (PA),21413,22679,23000,24479,24047,22629,22477,23265,20124,15586,12613,10511,8597,5913,4018,2451,1555,735,326,86,29,266536,15128,17.62,3.09,49.81,50.19,18.215313500148206,9.907962915020468,0.09980376928069998,71.56980823418617,0.2071115813644601,0.2176090765496205,96.43,92.2,233669.0,186270.0,0.58,56.0,47.82,12.73,19.37,41.86,8.23,26.42,47.82,10.07,43.4,1.23,527.86,72.09,8.53,0.39,61.99,15.423174063192619,28821.0,12.80577162,-49.1420253334067,-5.35260576313025
217,1504307,Maracanã (PA),1803,1917,2271,2451,2039,1981,1839,1905,1814,1582,1355,1261,1055,890,698,506,319,169,66,31,19,25812,808,31.96,3.35,51.18,48.82,16.47670388910281,5.240662302656912,0.019252984212552945,78.20177127454755,0.06160954948016943,0.06160717723614802,88.25,90.65,28376.0,11656.0,0.59,45.52,12.76,49.54,13.59,27.81,1.47,45.55,12.76,4.8,53.11,4.61,221.89,70.85,8.49,6.46,275.35,0.0,0.0,0.0,-47.4552679594076,-0.762419459981231
218,1504406,Marapanim (PA),1736,2058,2111,2089,1926,1930,2051,1974,2047,1764,1537,1267,1179,1040,722,561,339,162,45,17,18,26471,805,32.9,3.17,51.36,48.64,15.677567455688104,5.2120573514469575,0.007526436608587664,79.07650622812629,0.026342528130056827,0.037632183042938326,95.87,92.72,26605.0,11704.0,0.54,49.99,20.09,39.77,14.64,33.61,1.72,47.35,20.09,4.39,48.43,3.06,277.01,70.61,9.16,1.26,245.05,0.0,0.0,0.0,-47.7025487537677,-0.712150996347819
219,1504422,Marituba (PA),7695,8718,8648,9519,9859,9711,9480,9709,9181,7537,6450,4857,3723,2732,1799,1010,666,296,138,38,19,110515,103,1070.74,3.09,48.93,51.07,20.13311743498448,10.069689839954913,0.10466895089505372,69.60843077088235,0.08409300328320556,0.08408999418526636,99.45,95.61,108246.0,107123.0,0.42,53.52,54.1,2.83,25.71,48.85,4.93,23.67,54.1,15.2,50.02,4.2,382.02,72.6,9.2,3.5,124.15,61.20611360510678,83368.0,32.13857738,-48.340535877783,-1.3464172655758
220,1504455,Medicilândia (PA),2365,2314,2468,2424,2296,2062,2090,2074,2048,1629,1370,1225,929,716,473,317,170,80,36,7,1,27077,8273,3.27,3.02,52.87,47.13,20.1557540414852,9.688491917029602,0.25835978445412267,69.83095888388573,0.06643537314534584,0.06643537314534584,84.12,87.13,27328.0,9559.0,0.61,54.02,16.42,63.64,10.62,17.3,1.97,41.22,16.42,2.72,36.84,1.22,345.44,72.99,7.81,12.87,193.85,0.0,0.0,0.0,-52.8883453507243,-3.44541741218688
221,1504505,Melgaço (PA),3655,3519,3571,3516,2850,2198,1789,1636,1325,1032,786,552,458,365,271,162,85,52,26,15,18,27876,6774,4.12,4.85,52.25,47.75,13.73744619799139,11.029411764705882,0.05021520803443328,75.14347202295552,0.03945480631276901,0.03945339119830709,36.17,80.12,24808.0,5503.0,0.55,47.03,10.45,48.29,14.35,22.05,9.76,48.46,10.45,16.12,86.43,3.23,135.21,71.57,5.51,14.4,284.61,1.3061766659287137,0.0,0.0,-50.7174646976964,-1.803446698641
222,1504604,Mocajuba (PA),2155,2351,2454,2921,2706,2402,2081,1958,1771,1433,1255,964,752,659,490,351,260,141,61,26,7,27198,871,31.22,3.96,50.74,49.26,18.630046326935805,11.647915287888816,0.022060445621001543,69.5271711155232,0.17280682403117875,0.17280682403117875,81.39,91.78,26731.0,18279.0,0.58,57.41,20.69,49.33,11.66,23.83,6.18,42.63,20.69,11.18,65.91,2.93,229.18,70.21,8.07,9.22,391.14,0.0,0.0,0.0,-49.5090234612729,-2.58287297327153
223,1504703,Moju (PA),7495,7876,7930,8493,7673,7364,6927,6427,5690,4673,3823,2952,2244,1673,1177,830,480,228,93,33,13,83039,9094,9.13,3.35,52.18,47.82,13.228211622846134,13.172321120664026,0.08799781194629755,73.23796273173748,0.27350671280606,0.30679953385497183,74.7,87.53,70018.0,25162.0,0.63,51.76,27.61,53.16,12.34,19.55,8.05,37.75,27.61,5.74,62.93,3.08,291.67,70.44,7.26,11.19,293.04,1.9778393351800556,0.0,0.0,-48.7671991273719,-1.885889
